stop_id,stop_name,stop_lat,stop_lon
"700000003388","Lisburn, Sprucefield Shopping Centre","54.4872433773613","-6.06597923051899"
"700000004183","Banbridge, Banbridge","54.3464550748621","-6.27154284081229"
"700000011467","Ulsterbus Depot","54.6016407291279","-7.30048124165798"
"700000013332","Strabane Bus Station","54.8263922545302","-7.47058952108145"
"700000013460","Canal Street","54.8277460618064","-7.46378639704708"
"700000014719","Belfast City Centre, Glengall Street","54.5950880606977","-5.93719485012835"
"700000015376","Ballygawley Park and Ride","54.4628248330609","-7.02865110924155"
"7000B107131","Culloville (Mace)","54.0620448123748","-6.64352516920916"
"7000B139481","Newry (Quays Shopping Centre)","54.1682530256848","-6.33909756269821"
"7000B139491","Newry (Buttercrane Shopping Centre)","54.1728714823796","-6.34099572245591"
"7000B139501","Newry (Buttercrane Shopping Centre)","54.1728655758005","-6.34056705988029"
"7000B139771","Bridge St Northbound (Killeen Bridge)","54.1310230855181","-6.34647889814698"
"7000B139781","Meigh Cross (Service Station)","54.1158843222512","-6.35728457153686"
"7000B140871","Market Square","54.1933170593249","-7.56794116763396"
"7000B141541","Belleek (Bus Shelter)","54.4761705959608","-8.09450198679982"
"7000B141561","Market Square","54.1933796273301","-7.56784857395778"
"7000B150611","Newry, Southern Regional College","54.1768023042176","-6.34321285594727"
"7000B156051","Newry, Newry Bus Station","54.1756160569634","-6.33995140976067"
"7000B158131","Foyle Street Bus Station Derry","54.9966287583853","-7.31786633503893"
"7000B158241","Derry (Magee Campus Strand Road)","55.0044762846992","-7.3217817014213"
"7000B5596101","Sligo (Borough Boundary)","54.2972032651449","-7.87020718649796"
"7000B630091","Letterbreen","54.3092870556637","-7.73268562828709"
"7000B630101","Letterbreen","54.3094925605682","-7.73216183422823"
"7000B6310001","Blacklion, Belcoo","54.296216555426","-7.87179252976785"
"7050B108081","Enniskillen, Ulsterbus Depot Enniskillen","54.34369442864","-7.64007888696494"
"7050B1409001","Bellanaleck","54.2950047241065","-7.63801510677572"
"7050B1520901","County Donegal, Belleek","54.4773534663925","-8.09848548469932"
"7060B152481","Sion Mills (Opp Post Office)","54.7843117247012","-7.4716367976002"
"7060B157111","Newtownstewart (Bypass Opp Spratt)","54.7218905194398","-7.37298186024223"
"7060B1581001","Newtownstewart (Bypass Spratt)","54.7217738838126","-7.37301470512109"
"7060B1581401","Sion Mills (Recreation Club)","54.7857793583271","-7.47234836164944"
"8210B1340201","Hacketstown, Hacketstown","52.8652215308509","-6.55839857023041"
"8210B136061","Carlow IT (Opp Main Entrance)","52.8299811805243","-6.93597455431291"
"8210B1360701","Leighlinbridge Cross (Slip Road)","52.735531445787","-6.98709757456481"
"8210B136211","Rathvilly (Opp Post Office)","52.880550701417","-6.69556191940628"
"8210B136231","Hacketstown (Opp Kealys)","52.8653749936502","-6.55845289325902"
"8210B153991","Tullow (Carlow), Flynn's Garage","52.8048431853231","-6.73299516354373"
"8210B154001","Tullow (Carlow), Flynn's Garage","52.8046580908354","-6.73249626766088"
"8210B3355701","Carlow, Carlow Coach Park","52.8336290882757","-6.92684707991193"
"8210B3390801","Leighlinbridge, Leighlinbridge Cross","52.7388720012359","-6.98568732045988"
"8210B3394301","County Carlow, Royal Oak","52.7037905997953","-6.98460691244028"
"8210B3511401","Rathvilly, Rathvilly","52.8806191573759","-6.69524785426883"
"8210B3511801","Kildavin, Kildavin","52.6850443864332","-6.69071660531193"
"8210B351711","Lucy Nolan's","52.7396816793418","-6.77011782186083"
"8210B351721","Lucy Nolan's","52.7397349798273","-6.77005708306026"
"8210B5981201","Carlow, Institute of Technology Carlow","52.830054399641","-6.93612116551754"
"8220B1000401","Dublin (Clare St Cafe Sol)","53.3414338236764","-6.25156217809694"
"8220B100061","Donnybrook (Opp Stadium)","53.3199226645546","-6.23309292920971"
"8220B100071","Donnybrook (Stadium)","53.3201985891584","-6.23351684379239"
"8220B100111","Dublin (Westland Row Opp Centra)","53.3436005227483","-6.24976134724033"
"8220B1001201","Drumcondra (Rail Station)","53.3630695607992","-6.25841467181009"
"8220B1001401","Whitehall, Whitehall Church","53.3832628572882","-6.24410591269662"
"8220B100351","Merrion Square North (Jct Clare St)","53.3409427335809","-6.24994529768875"
"8220B100401","Dublin (Merrion Rd (Show House Pub)","53.3284654630745","-6.22912156044056"
"8220B100411","Merrion Square, Holles Street","53.3398433311782","-6.24730214770428"
"8220B100421","Merrion Square, Merrion Street","53.3393673855374","-6.25223240916396"
"8220B100431","I.F.S.C., North Wall Quay","53.3477795764929","-6.24239531201176"
"8220B100461","Dublin (Merrion Rd Opp Show House Pub)","53.3283555138789","-6.22837542799152"
"8220B1008501","Whitehall (Opp Garda Station)","53.3750927719051","-6.2508449005878"
"8220B1008601","Drumcondra (Opp Rail Station)","53.3622484073735","-6.25880877863177"
"8220B1008801","Dublin (Whitworth Rd Lower)","53.3619754108367","-6.26042763798587"
"8220B1008901","Finglas (Opp Bottom of Hill)","53.3862676078084","-6.29702226751659"
"8220B1009001","Finglas (North Rd Westbound)","53.4001982314926","-6.30834665852557"
"8220B1011301","Finglas (North Rd)","53.40014650036","-6.30786746825518"
"8220B1011401","Finglas (Bottom of Hill)","53.3867460591622","-6.29716854404834"
"8220B1011501","Dublin (Glasnevin)","53.369942933041","-6.27806175078419"
"8220B1012501","Dublin (Half Way House)","53.3715231307705","-6.32980210534013"
"8220B101971","Custom House Quay (Jurys Inn)","53.3480708420884","-6.24691955913901"
"8220B1021101","Dublin (Batchelors Walk)","53.3472647081208","-6.26062113417381"
"8220B1021601","Dublin (Leeson St (Fitzwilliam Place)","53.3331746082304","-6.25407726314052"
"8220B1021701","Burlington Hotel Sussex Road","53.3297106861169","-6.24893374968254"
"8220B1021801","Dublin (Donnybrook Church)","53.3185971380099","-6.23098620998624"
"8220B1021901","Dublin (RTE)","53.3145175114646","-6.22440094329832"
"8220B1043301","Whitehall (Church Collins Ave)","53.3839185093541","-6.24346256595903"
"8220B1043501","Whitehall (Garda Station)","53.3764271825788","-6.2499034037806"
"8220B1044901","Phibsboro (St. Peters Church)","53.3607634116439","-6.2766289314761"
"8220B1045001","Dublin (Opp Half Way House)","53.3715875372432","-6.33055102095515"
"8220B1045901","Phibsboro (Opp St Peters Church)","53.3608535465535","-6.27602429158869"
"8220B1046001","Phibsboro (Berkley Rd)","53.3596828024235","-6.26965602998253"
"8220B1046101","Dublin (Merrion Row)","53.3385331896343","-6.25480444135106"
"8220B1050001","Dublin (Trinity College)","53.3437835692199","-6.25920086271606"
"8220B1063801","Dublin (Opposite RTE)","53.3146997356063","-6.22577420211839"
"8220B106421","North Wall, North Wall Quay","53.3468793652771","-6.22892915852585"
"8220B111751","Phibsborough, Phibsboro Road (NCR)","53.3601923329219","-6.27256522611868"
"8220B111761","Pearse Station, Westland Row Church","53.3431250983872","-6.24982587796841"
"8220B111771","Dublin City, Marlborough Street","53.349115135278","-6.25561891627054"
"8220B111781","Merrion Square, Holles Street","53.3401450526873","-6.24765020084269"
"8220B123501","The 3Arena (Point Depot)","53.3483864091792","-6.22691398000898"
"8220B123511","Dublin (Opp Convention Centre)","53.3474610564382","-6.23968971942789"
"8220B123521","Custom House Quay (Opp Jurys Inn)","53.3479814560835","-6.24695326829959"
"8220B123531","Dublin (Opp IFSC)","53.3479034788415","-6.24715173539031"
"8220B1262001","Glasnevin, Hart's Corner","53.3667962218684","-6.27240321889904"
"8220B134961","Dublin Busaras, Busáras","53.3498385867717","-6.25100789921742"
"8220B1349701","Dublin (Gardiner Street)","53.3563423559873","-6.25874910275868"
"8220B1349801","Dublin (Talbot Street)","53.3511860348525","-6.25156861958856"
"8220B1349901","Dublin, Parnell Square","53.353689759111","-6.26237252337884"
"8220B1350002","Busáras","53.349580765306","-6.25181457561332"
"8220B1350201","Dublin (DCU)","53.386888884633","-6.25663057318753"
"8220B1350301","Dublin (Beresford Place)","53.3487549295197","-6.25495768638166"
"8220B1350401","Dublin (St Stephens Green)","53.3372423341478","-6.25626873215729"
"8220B1350501","Dublin (O Connell Street)","53.3508391969982","-6.26043052493635"
"8220B1350801","Dublin City South, Kildare Street","53.3401356511022","-6.25559501489233"
"8220B1351001","Dublin, Halfpenny Bridge","53.3458641751298","-6.26381729294171"
"8220B1351201","Outside Connolly Station","53.3502180212919","-6.25052670165243"
"8220B1351401","Dublin City South, Georges Quay","53.3473826953875","-6.25331643588367"
"8220B1352701","Dublin (Custom House Quay)","53.3483592044049","-6.2537121112653"
"8220B135301","Dublin City South, Leeson Street","53.3354983593528","-6.25624978586895"
"8220B1353101","Dublin City South, Wilton Terrace","53.3330493209031","-6.25043365506791"
"8220B1353201","Dublin City South, Baggot St Lower","53.3364376609929","-6.24858307013009"
"8220B1353301","Dawson Street (Pink Shirt Shop)","53.340134371715","-6.25858361137312"
"8220B1353501","Dublin, Eden Quay","53.3477999659065","-6.25849647173381"
"8220B1354001","Outside Heuston Train Station","53.3458581867796","-6.29393218197991"
"8220B135411","Dublin City South, Wilton Terrace","53.3324042088645","-6.25241202316961"
"8220B1354201","Outside Heuston Train Station","53.3462001112321","-6.29270191970554"
"8220B1358201","Phibsboro (Mater Hospital)","53.3604291327272","-6.26843881916137"
"8220B1358401","Dublin (D'Olier Street)","53.3466729562416","-6.25825702932735"
"8220B136041","IKEA Ballymun","53.4042282627213","-6.26536697324471"
"8220B136151","Dublin (Fitzwilliam Square)","53.3371751204766","-6.25167634065391"
"8220B136551","Dublin (Leeson St Upper (Grand Parade)","53.3311450829316","-6.25235839578026"
"8220B3551501","Nutley Lane (St Vincent's Hospital)","53.3173579970597","-6.21598254819272"
"8220DB000015","Ballybough, Lower Dorset Street","53.3600885841359","-6.2610904703136"
"8220DB000187","Phibsborough, Phibsboro Road","53.3627342523604","-6.27244736533832"
"8220DB000190","Phibsborough, Broadstone Depot","53.3551257304144","-6.27337107400574"
"8220DB000341","Dublin City South, Townsend Street","53.346028151357","-6.25657104949808"
"8220DB000772","Donnybrook, Donnybrook Bus Garage","53.3184852574538","-6.23132106360093"
"8220DB000847","Dublin City South, Upper Leeson Street (Mespil Road)","53.3316014451627","-6.25221961965177"
"8220DB002086","Merrion, Nutley Lane","53.3181567845485","-6.21470338209092"
"8230B1025101","Palmerston, Liffey Valley Footbridge","53.3557398996124","-6.39193883713713"
"8230B1034401","Lucan (Opp Spa Hotel)","53.354034360228","-6.45885242526344"
"8230B1034501","Liffey Valley (Opp Shopping Centre)","53.3561766444633","-6.39166700005541"
"8230B105661","Tallaght (Hospital)","53.2894293212394","-6.3742407975085"
"8230B1343601","Newlands Cross (Southbound)","53.3125255302988","-6.39125252534118"
"8230B1344901","Red Cow LUAS","53.3162775616946","-6.37365576374738"
"8230B1360501","Clondalkin, Newlands Cross","53.3136971812806","-6.38816179122307"
"8230B1550101","Tallaght (Opp Hospital)","53.2893774535526","-6.37373277595013"
"8240B100021","Skerries (War Memorial)","53.5803895380854","-6.10700998031344"
"8240B1001501","Santry (Omni Shopping Centre)","53.3919064469343","-6.2463513403633"
"8240B1001601","Swords (Airside Retail Pk)","53.4468179717604","-6.22832686269413"
"8240B1001801","Swords (Seatown Roundabout)","53.4617325602844","-6.21347336992371"
"8240B1001901","Swords (Opp Bostic)","53.4686889702079","-6.21345232771727"
"8240B1002001","Turvey, Drimnagh Road(Turvey Road)","53.4942649921154","-6.19525498683738"
"8240B1002101","Ballough (Opp Man of War)","53.5335210290563","-6.19562238916679"
"8240B1002201","Oberstown, Five Roads","53.5514316421769","-6.20981720122461"
"8240B1002301","Grooms","53.5670652112087","-6.20945884699274"
"8240B1002401","Courtlough, Knock Cross","53.5768356582441","-6.20231054766472"
"8240B1002501","Balrothery (Opp Kingdom Hall)","53.5935078086979","-6.1856187603554"
"8240B1002601","Balbriggan (Opp Golf Club)","53.5967032599114","-6.18356297996706"
"8240B1002701","Balbriggan (Opp Wavin)","53.60188781927","-6.18524443818982"
"8240B1002801","Balbriggan (Car Park)","53.6044822959891","-6.18445316287735"
"8240B1002901","Balbriggan (Community College)","53.6113674183595","-6.18625859731593"
"8240B1003001","Balbriggan (Bath Rd Service Station )","53.6134815558293","-6.18935720088223"
"8240B1003101","Balbriggan (Garda Station)","53.6159187402453","-6.19242719137927"
"8240B1007101","Balbriggan (Apache Pizza)","53.6112615172544","-6.18579460059915"
"8240B1007201","Balbriggan (Wavin)","53.6003537245077","-6.18543109316004"
"8240B1007301","Balbriggan (Golf Club)","53.595808536305","-6.1832387642377"
"8240B1007401","Balrothery (Creaderwood Lodge)","53.5933802280657","-6.18550336619333"
"8240B1007501","Opp Courtlough","53.5768329359975","-6.20212944220891"
"8240B1007601","Opp Grooms","53.5672513522529","-6.20928490102549"
"8240B1007701","Opp Five Roads","53.5508533390268","-6.20901152922906"
"8240B1007801","Ballough (Man of War)","53.5314476922221","-6.19343262499992"
"8240B1007901","Turvey (Jctn Turvey Avenue)","53.494570269189","-6.19463912088673"
"8240B1008001","Swords (Bostic)","53.4685930674231","-6.21304964832671"
"8240B1008101","Swords (Woodies Seatown)","53.462205699828","-6.21325770830892"
"8240B1008201","Swords (Opp Airside Retail PK)","53.4432270441943","-6.22800962288092"
"8240B1008301","Santry (Opp Omni)","53.3922793022538","-6.24603528651991"
"8240B1009301","Coolquoy, Ward Cross","53.4587810772361","-6.35073013356082"
"8240B1010901","Coolquay (Mays Stores)","53.458587237874","-6.35036116211557"
"8240B1011001","Ward Cross (Southbound)","53.4442109665918","-6.34093726650701"
"8240B1011101","Brock Inn","53.433659607079","-6.33322099989119"
"8240B1011201","Suncourt (Jctn of Motorway)","53.4215525654992","-6.32484740554746"
"8240B1012601","Blanchardstown (Jctn Navan Rd)","53.3860274763593","-6.37060724072582"
"8240B101281","Blanchardstown, Crowne Plaza","53.3958146966725","-6.39110489726147"
"8240B1043201","Balrothery (Balrothery Inn)","53.5880076830696","-6.18920790704046"
"8240B1045601","Blanchardstown SC (Slip Rd Eastbound)","53.3973158526467","-6.38978510199504"
"8240B105181","Phoenix Park Racecourse, Navan Road Parkway (Outbound)","53.3759199920699","-6.34476547985341"
"8240B105191","Castleknock, Outside Train Station","53.3770660292927","-6.3457431129165"
"8240B1056201","Kilshane Cross (Eastbound)","53.4289792085835","-6.33016862194691"
"8240B109261","Barons Hill Rise","53.613834270822","-6.20621040982708"
"8240B109271","Brega","53.6147539709107","-6.20400992918971"
"8240B109281","Opp Jaffa's","53.6044651877387","-6.18984875465539"
"8240B109291","Harry Reynolds Rd (Graveyard)","53.6084767273348","-6.19301714209864"
"8240B109301","Clonard Road","53.6065223639441","-6.20169952510535"
"8240B109311","Westbrook Drive","53.6104102005413","-6.19427969633219"
"8240B109321","Ashfield Green","53.6135043597498","-6.19443481944903"
"8240B130861","Dublin Airport","53.4276848640462","-6.24186900747195"
"8240B130871","Dublin Airport","53.4279145207242","-6.24220565071915"
"8240B1308801","Dublin Airport","53.4282925455244","-6.24285220335521"
"8240B1309001","Dublin Airport","53.4284115319757","-6.24299778456947"
"8240B1332001","Balbriggan (Bank of Ireland)","53.6071283647463","-6.18350844613664"
"8240B1333201","Balrothery (Opp Balrothery Inn)","53.5879675713771","-6.18952684302739"
"8240B1342501","Ward Cross (Northbound)","53.4438249062376","-6.34096736533977"
"8240B1343201","Kilshane Cross (Westbound)","53.4288185664622","-6.33025016383034"
"8240B1344501","St. Margaret's, Kildonan (North Road)","53.413411381391","-6.31922522879644"
"8240B134461","Lucan, Spa Hotel","53.3568321923541","-6.46533165134911"
"8240B1345301","Swords (Entrance Pavillion SC)","53.4531847428826","-6.21586502712613"
"8240B1347401","Balbriggan, Bus Stop at Train Station","53.6116654622727","-6.18279977739387"
"8240B1347601","Moylaragh","53.6124595904201","-6.20324580101849"
"8240B1347701","Hastings Green Roundabout","53.6133455694266","-6.20958660877097"
"8240B1348101","Hamlet Lane","53.6157402931163","-6.1990705883773"
"8240B1348501","Castleland Roundabout","53.6020699001499","-6.17830077195225"
"8240B1348601","Millfield Shopping Centre","53.6069812860447","-6.19874819551651"
"8240B136971","Balbriggan (Bank of Ireland)","53.6073616677533","-6.1834833186699"
"8240B1371101","Balbriggan (St Peter and Paul Church)","53.6039601928705","-6.1844000029904"
"8240B1371301","Balbriggan (Opposite Garda Station)","53.615464239803","-6.19149433069528"
"8240B137431","Swords (Malahide Rd Roundabout)","53.4530003740602","-6.21555654435741"
"8240DB000661","Blanchardstown, Blanchardstown Main","53.3924222501891","-6.38348935657184"
"8240DB001545","Blanchardstown, Blanchardstown Shopping Centre","53.3927566349335","-6.38428863097674"
"8240DB002294","Blanchardstown, Blanchardstown Hospital","53.3900864585235","-6.37034695742265"
"8240DB006179","Blanchardstown, Blanchardstown Hospital","53.3895530035626","-6.37077328062277"
"8240DB007297","Hospital Car Park","53.3880162566005","-6.37078686684589"
"8240DB007298","Hospital Car Park","53.3875691042428","-6.37029277862408"
"8250B1022001","Booterstown, Montrose Hotel Stillorgan","53.3088105923005","-6.21600884383586"
"8250B1022101","Stillorgan Park Hotel","53.29597017535","-6.20368700845621"
"8250B1022401","Ballybrack, Foot Bridge","53.2613542702033","-6.14833976468464"
"8250B1022501","Loughlinstown, Loughlinstown","53.242973481727","-6.13052335195355"
"8250B106341","Loughlinstown, Loughlinstown Hospital","53.2426713719461","-6.13074629721704"
"8250B1063501","Cabinteely, Cornelscourt Shopping Centre","53.265527399076","-6.15778422159676"
"8250B1063601","Galloping Green, Rocwood Estate","53.2790706190441","-6.18695493210084"
"8250B106551","Old Connawood, Castle Street","53.2070901258054","-6.11446447672189"
"8250B106561","Old Connawood, Castle Street","53.2071102214686","-6.11459833837388"
"8250B1350601","Dublin (Belfield)","53.3053145450779","-6.21663479349524"
"8250DB000768","Dublin (UCD Stillorgan Rd Flyover)","53.309418194004","-6.21877482979353"
"8250DB002016","Deansgrange, Stillorgan Road (Newtownpark Ave)","53.2782087321279","-6.18406714943227"
"8250DB004571","Stillorgan, Stillorgan Road (Stillorgan Park)","53.2889790521809","-6.19487535807999"
"8250DB004727","Stillorgan, Laurence Park","53.2908117067824","-6.19778320998189"
"8260B102091","Barberstown Rd (Eastbound)","53.316860522612","-6.60644039719256"
"8260B102101","Quidstown House (Eastbound)","53.3122921361159","-6.65236139421748"
"8260B1025301","Prosperous (Opp Curryhills)","53.2886594091657","-6.73994875585742"
"8260B1025401","Milltown (Milltown Inn)","53.2047397520434","-6.86028087505198"
"8260B1025601","Prosperous (Dowling Nth Equestrian Cent)","53.2872943156544","-6.77454498913129"
"8260B1025701","Straffan (Straffan Rd Westbound)","53.3185477075298","-6.61858815076201"
"8260B1025801","Green Cross (Westbound)","53.3202420025286","-6.62911552958706"
"8260B1025901","Greens Cross Eastbound","53.3203589720493","-6.62912679050891"
"8260B1026001","Quidstown House (Westbound)","53.3137068890087","-6.64871497226967"
"8260B1026101","Clane (Opp Maxol)","53.2964092447193","-6.67953437599049"
"8260B1026301","Clane (Aldi)","53.2905161762499","-6.68793587350201"
"8260B1026401","Clane (Clane Hospital)","53.2900774328415","-6.7003987965252"
"8260B1026501","Allen (Opp Church)","53.2419292538769","-6.85265584741901"
"8260B1026601","Prosperous (Curryhills)","53.2887124108041","-6.7407121358541"
"8260B1026701","Kilmeague (Moores Post Office)","53.2510830161174","-6.8401078558622"
"8260B1026801","Prosperous (Dowlings North)","53.2874354987988","-6.77341607531143"
"8260B1026901","Cross of Brockagh (Dag Wells)","53.2864306246533","-6.79919632580236"
"8260B1027001","Coill Dubh (Housing Estate)","53.2919675736639","-6.81815085066376"
"8260B1027101","Allenwood (Opp Centra)","53.2840095895919","-6.86021212908104"
"8260B1027201","Shee Bridge","53.2832999175711","-6.8782570726765"
"8260B1027301","Lullymore Cross","53.3102217230509","-6.92359015910499"
"8260B1027401","Carbury Mushroom","53.3188192682252","-6.92720113852172"
"8260B1027501","Derrinturn (Windmill Cross)","53.334396350016","-6.93141975353168"
"8260B1027601","Derrinturn (Opp Drenagh Pk)","53.336906507662","-6.93574151210472"
"8260B1027701","Robertstown (Opp Post Office)","53.2694337549372","-6.81523432932989"
"8260B1027801","Derrinturn (Ashgrove)","53.342026126822","-6.94448920874036"
"8260B1030001","Milltown (Opp Milltown Inn)","53.2047058144663","-6.86049134539324"
"8260B1031601","Maynooth (Opp Universty)","53.3820845147102","-6.59879461807352"
"8260B1031901","Edenderry (Opp High Rd Gap)","53.3463461204056","-6.99944104343089"
"8260B1032001","Opp Newbury Cross","53.3462678782946","-6.95159341499394"
"8260B1032101","Derrinturn (Opp Church)","53.339715295189","-6.9403116480613"
"8260B1032201","Furey's Bar","53.4273620379658","-6.90963336560526"
"8260B1032301","Lullymore Cross (Eastbound)","53.3141268741816","-6.92509770487449"
"8260B1032501","Moores Cottage (Opp School)","53.3051734038781","-6.91396433338857"
"8260B103361","Broadford (Clare), Moyvalley","53.4289067957441","-6.95783720686133"
"8260B1033701","Furey's Bar","53.4274964035581","-6.90958478477375"
"8260B103391","Cloncurry Cross (Westbound)","53.415439660208","-6.79144302865356"
"8260B1034001","Kelleher Cross","53.4211810494741","-6.76233295323907"
"8260B1034301","College","53.3821747093036","-6.59882172024453"
"8260B1039101","Newbridge (Riverbank Theatre)","53.1820035988431","-6.79479917284844"
"8260B1039201","Newbridge (Opp Ryans Bar)","53.1805392645476","-6.7975331961914"
"8260B1041101","Main Street Newbridge","53.1805340532542","-6.79790736569164"
"8260B1043101","Opposite Shee Bridge","53.2833626736254","-6.87824043234141"
"8260B1043601","Clane (Firmount Cross Eastbound)","53.2895253674433","-6.71664463717234"
"8260B1043801","Richardstown Cross Eastbound","53.3064566707629","-6.66252361989321"
"8260B1045501","Greens Cross (The Cobbs Eastbound)","53.3174199663559","-6.63854161381728"
"8260B1045801","Barberstown Cross (Eastbound)","53.3239861694113","-6.60553268805346"
"8260B1046601","Straffan (Straffan Rd Eastbound)","53.3185824286368","-6.61848196287712"
"8260B1047001","Derrinturn (Opp Ashgrove)","53.3422068973486","-6.94460488253161"
"8260B1047101","Derrinturn (Definagh)","53.3367310977227","-6.93522034136841"
"8260B1047201","Derrinturn (Opp Windmill Lane)","53.3336019768186","-6.9300282670178"
"8260B1047301","Kilkeashin Lane","53.327853028956","-6.92635900904327"
"8260B1047401","Kennedys Bridge Eastbound","53.2874851354517","-6.89430046646634"
"8260B1047501","Prosperous (Opp Thatched Cottage)","53.2880824993843","-6.75691413021671"
"8260B1047601","Prosperous (Church)","53.288345673218","-6.75027707983446"
"8260B1047701","Clane (Opp Clane Hospital)","53.2901774083043","-6.70050075785304"
"8260B1047801","Clane (Esso Garage)","53.2935170850573","-6.68539881081424"
"8260B1047901","Clane (Maxol Garage)","53.2968358562132","-6.67910116695528"
"8260B1048001","Straffan (Opp Church)","53.3128146198271","-6.60862821920721"
"8260B1048101","Celbridge (Op Killadoon St Raphaels)","53.3352653448641","-6.56159000616107"
"8260B1048201","Celbridge (Opp Setanta House)","53.3353855836916","-6.5529520391261"
"8260B1048301","Celbridge (Opp The Mill)","53.337884857487","-6.54046386827942"
"8260B105211","Prosperous (Thatched Cottage)","53.2879727270537","-6.75759225066986"
"8260B1319001","Edenderry (High Road Gap)","53.3460960355019","-6.99962712177869"
"8260B1319901","Newbury Cross","53.3466254306733","-6.95239565898764"
"8260B1320701","Derrinturn, Derrinturn","53.3392429867419","-6.93975274025001"
"8260B1323201","Moores Cottage","53.3050843695986","-6.91405661851773"
"8260B1323901","Allenwood, Kennedys Bridge","53.2879865559314","-6.89506743267673"
"8260B1324501","Allenwood, Allenwood","53.2838667545305","-6.86219552511081"
"8260B1326101","Blackwood, Coill Dubh","53.2918772768888","-6.81810834369819"
"8260B1327901","Cross of Brockagh","53.2863373740121","-6.79975386246707"
"8260B1329901","Broadford (Clare), Moyvalley","53.4290595460735","-6.95783347030244"
"8260B1330101","Prosperous, Prosperous","53.2882025117159","-6.75119617381477"
"8260B1330901","Sallins, Bodenstown Cross","53.2660349284534","-6.67020163712132"
"8260B1331301","Clane, Firmount Kildare","53.2893559478851","-6.71676970758031"
"8260B1332101","Clane, Clane","53.2932791273292","-6.68582613175036"
"8260B1333601","Cloncurry Cross (Westbound)","53.4152672672839","-6.79216999215493"
"8260B1334301","Straffan, Richardstown Cross","53.3064273621625","-6.66231446373289"
"8260B1335601","Straffan, Green's X","53.3172048537125","-6.63859348749017"
"8260B1337301","Kelleghers Cross (Westbound)","53.4201256081706","-6.73621535751597"
"8260B1337901","Straffan, Straffan","53.3128175944095","-6.60888324988344"
"8260B1338401","Straffan, Barberstown Cross","53.3169923072991","-6.60618095137851"
"8260B1338501","Straffan, Barberstown Cross","53.3238082374298","-6.60568860372164"
"8260B1340301","The Harbour","53.3990669913034","-6.66751580948953"
"8260B1340401","Celbridge, Killadoon","53.3350878340317","-6.56177616427242"
"8260B1342201","Celbridge, Setanta House","53.3352687907201","-6.55295599287925"
"8260B1342801","Celbridge, Celbridge","53.3379440728152","-6.54016151726159"
"8260B1354601","Maynooth, Glenroyal Hotel","53.3796779750121","-6.58905837121957"
"8260B1355901","Sallins (Banburys)","53.2500254244641","-6.66516856212485"
"8260B1356001","Sallins (Eastbound)","53.2463096428707","-6.66562885346131"
"8260B1368001","Bodenstown Cross (Eastbound)","53.2660630523242","-6.67030570146805"
"8260B1370001","Naas (Post Office)","53.2176468530644","-6.66395934288105"
"8260B1370301","Naas (Opposite Post Office)","53.2176089002864","-6.66378083495293"
"8260B1524001","Kilmeage, Kilmeague Kildare","53.2511348865552","-6.83989665564684"
"8260B1524101","Robertstown, Robertstown Kildare","53.2694000481591","-6.81546014029524"
"8260B5584101","Kilmeage, Allen","53.2393404546724","-6.85542173305562"
"8260DB003974","Kilcock, The Square Shopping Centre","53.4002678823691","-6.66720760037269"
"8260DB005115","Kilcock, Royal Canal Court","53.4031789868821","-6.67116215090813"
"8260DB005117","Kilcock, Abbeyfield Estate","53.4043272844821","-6.67339734100355"
"8270B1360901","Gowran (Opposite Power's)","52.6283258948316","-7.07016857566347"
"8270B136101","Thomastown, Thomastown","52.5253965947534","-7.13865995200453"
"8270B136111","Ballyhale (Opp Day Today Shop)","52.4675691555997","-7.20076404271179"
"8270B136121","Mullinvat, Mullinavat","52.368247762991","-7.17107431904384"
"8270B3305801","Knocktopher (Whites Castle Est)","52.4861705845709","-7.21482671163795"
"8270B3306501","Ballyhale, Ballyhale","52.4673609540985","-7.20054705232274"
"8270B3311201","Lukeswell (Opposite Pub)","52.3966030416467","-7.18473740716516"
"8270B331981","Piltown (Opp Centra)","52.3511522122888","-7.33152485703455"
"8270B332871","Fiddown (Opposite Meades Pub)","52.3313927882724","-7.31384937148866"
"8270B332881","Mooncoin (Church)","52.2958153919544","-7.2601996922869"
"8270B3378001","Kilkenny, Outside Train Station","52.6544606730041","-7.2441097444009"
"8270B337811","Kilkenny (Ormonde House Ormonde Rd)","52.6481126883594","-7.25224367529372"
"8270B3384801","Paulstown (Opp Quik Pick)","52.6809577225903","-7.02935670355281"
"8270B3386701","Mullinvat, Mullinavat","52.368714390708","-7.17096279141866"
"8270B3389501","Inistioge (Church Main St)","52.4887974052555","-7.06547189849678"
"8270B3389701","Kilmacow Cross (Northbound)","52.3308550447148","-7.16091614012324"
"8270B3390501","Clodagh (Church carpark)","52.46909709831","-7.00196812633362"
"8270B339131","Clodagh (Opp Church carpark)","52.4690802418318","-7.00210097165471"
"8270B339211","Stripehill House (Southbound)","52.4347847008732","-6.96094676008628"
"8270B3392901","Stripehill House (Northbound)","52.4347512079675","-6.96122697765064"
"8270B339881","Paulstown (Quik Pick)","52.6804912319731","-7.03056496808799"
"8270B339951","Inistioge (Opp Church Main St)","52.4887522375064","-7.06544340646369"
"8270B3505501","Gowran, Castle Ellis Rd (Drovers Row)","52.6281855820781","-7.07061469425961"
"8270B3510301","Thomastown, Thomastown","52.5253101318308","-7.13789532630326"
"8270B351041","Knocktopher (Opp Whites Castle)","52.4860130108723","-7.21546263473034"
"8270B351101","Lukeswell (Pub)","52.3966457494168","-7.18441335386856"
"8270B3511601","Bennettsbridge, Bennettsbridge","52.5921625139921","-7.18438906087873"
"8270B351171","Kilmacow Cross (Southbound)","52.3309896489497","-7.16088424865729"
"8270B3512601","Glenmore, Glenmore","52.3535604752685","-7.02289322365952"
"8270B351281","Bella Creamery","52.5917574818876","-7.18430802699584"
"8270B351461","Glenmore (Westbound)","52.353525376261","-7.02299675617973"
"8270B351501","Kilmacow (Church)","52.3118646762608","-7.17664509373334"
"8270B351511","Kilmacow (Community Centre)","52.3135701497811","-7.17501480906738"
"8270B3580801","Pilltown, Piltown","52.3511881636074","-7.33152431466906"
"8270B3580901","Fiddown, Fiddown","52.3316349483432","-7.31375759076069"
"8270B3581001","Mooncoin, Mooncoin","52.2957944771925","-7.25973090637821"
"8270B5571201","Kilkenny, Ormond Road","52.6482285897256","-7.25209391769704"
"8280B131531","Dunlane Cross","53.1173996949949","-7.32688494147951"
"8280B1315601","Market Street Mountmellick","53.1174001172241","-7.32695962681693"
"8280B1553101","Hospital","53.0389838030673","-7.2749034369812"
"8280B1553201","Laois Shopping Centre","53.0328204415618","-7.29620767438964"
"8280B1554101","Laois Shopping Centre","53.0329283705077","-7.29774156502399"
"8280B1554501","Hospital","53.0389778144038","-7.27539561066015"
"8280B330831","Castlelyons","53.0136655981933","-7.14625611120913"
"8280B3308701","The Green Stradbally","53.0150120417259","-7.1485246238589"
"8290B1044201","Edgeworthstown, Edgeworthstown","53.6967129763042","-7.6110052793914"
"8290B1049501","Granard (Harpers Lodge)","53.7773162297975","-7.49627635834485"
"8290B1049601","Abbeylara (Handball Alley)","53.7654167962477","-7.44896022226787"
"8290B1311401","Edgeworthstown, Edgeworthstown","53.6967672867225","-7.61112591907698"
"8290B1313701","Abbeylara, Abbeylara","53.7651823965223","-7.44879645147962"
"8290B1357401","Courthouse","53.7282452141728","-7.80101592008573"
"8290B1357701","Longford, Outside Train Station","53.7243906981855","-7.79604897864112"
"8290B1358001","Courthouse","53.7285422898624","-7.8013327490812"
"8290B1359001","Granard","53.7775580848822","-7.49609140197582"
"8290B1415902","St. Joseph's","53.7251142534443","-7.78836307916057"
"8290B1416701","Topaz (Dublin Road)","53.724595747766","-7.78483515608791"
"8290B152151","Ballymahon, Ballymahon","53.5652122182364","-7.76617174810088"
"8290B1522001","Newtown Forbes, Newtownforbes","53.7674226010096","-7.8344882521608"
"8290B5515801","Clonfore Cross (Eastbound)","53.6730062529709","-7.9033396018556"
"8290B551591","Clonfore Cross (Westbound)","53.672988365583","-7.90344558027992"
"8290B553421","Lanesborough (OBriens Pharmacy)","53.6724246738958","-7.98883131650348"
"8290B5534501","Lanesborough, Lanesboro","53.6727752023645","-7.98946684520948"
"8290B556131","Ballinamuck, Ballinamuck","53.8658191997575","-7.71753513240029"
"8290B5561801","Ballinamuck, Ballinamuck","53.8658188418696","-7.71738309995416"
"8290B556281","Newtown Forbes, Newtownforbes","53.767368494966","-7.83435195423106"
"8290B5570001","County Longford, Kiloe Chapel","53.743832868756","-7.71468527917557"
"8290B557251","Killashee (Opp Magans)","53.681558646241","-7.88044801426296"
"8290B5572701","Killashee, Kilashee","53.6815226099574","-7.88035729438366"
"8290B5577301","Keenagh, Keenagh","53.6238377484933","-7.81601904004278"
"8290B557751","Keenagh (Southbound)","53.6238555122361","-7.81588291554503"
"8290B561031","Aughnacliffe (Opp Houricans Pub)","53.8510214036519","-7.60396782164567"
"8290B5610901","County Longford, Aughnacliffe","53.8510480103669","-7.60386118317757"
"8290B5611101","County Longford, Esker","53.7814082596728","-7.70500804609796"
"8290B5611201","County Longford, Ennybegs","53.7763362063074","-7.72614665339562"
"8290B561131","Esker (Northbound)","53.7815628136716","-7.70573526701379"
"8290B561141","Ennybegs (Opp St Marys Church)","53.7763992134628","-7.72619175668432"
"8290B5710501","Drumlish, Drumlish","53.821165749714","-7.7673005919863"
"8290B5710601","County Longford, Esker Cross","53.7740093783295","-7.69301471043982"
"8290B571101","County Longford, Esker Cross","53.7739109189728","-7.69316713149003"
"8290B571151","Drumlish, Drumlish","53.8207540635153","-7.76816854044536"
"8290B571161","Cullyfad (Church)","53.7439049388672","-7.71476058819799"
"8300B1003801","Opposite Rail Station","53.7125544908008","-6.33886381958387"
"8300B100511","Drogheda (Magdalene Street)","53.7183218409966","-6.34907630462686"
"8300B100521","Dundalk (Donore Rd Opp McDonalds)","53.9988818687673","-6.40594832991276"
"8300B100601","Drogheda (North Rd Opp Esso)","53.7238040478277","-6.36281838665152"
"8300B1006201","Drogheda (Opp St Marys Hospital)","53.7133054451094","-6.34181883420603"
"8300B1006401","Drogheda (Dublin Rd  Moorehall Lodge)","53.6974632023092","-6.30859345579473"
"8300B1020101","Jenkinstown (Louth), Gyles Quay Cross","53.9975076335299","-6.23986097091032"
"8300B1020201","Greenore, Greenore Euston Street","54.0320866145953","-6.13297072230417"
"8300B1050901","Dundalk, Dundalk Bus Station Long Walk","54.0057354366656","-6.40432858290811"
"8300B1056301","Ravensdale, Carrickarnon","54.0996744961747","-6.36076943194472"
"8300B1060001","Greenore, Whitestown","54.0118661044768","-6.13825571522281"
"8300B106501","Drogheda Hospital (NorthGate East)","53.7235672424225","-6.35537185194437"
"8300B106511","Drogheda Hospital (NorthGate West)","53.7234250163201","-6.35483186270786"
"8300B106541","Dromiskin, Dromiskin","53.9213374428556","-6.40024125860914"
"8300B1070101","Dundalk, DkIT Dublin Road","53.9841811539318","-6.39597323273481"
"8300B1070201","Dromiskin, Dromiskin","53.9214195623272","-6.39965955168673"
"8300B1070401","Annagassan, Annagassan","53.8823653671508","-6.34299895248997"
"8300B107091","Annaghvacky","54.0350648731087","-6.54645367271378"
"8300B1074401","County Louth, Rices Bridge","53.99166119793","-6.4664045641929"
"8300B1074501","County Louth, Stonethrough","53.9856377979261","-6.49753497262484"
"8300B1074701","County Louth, Channonrock","53.9723299504585","-6.55109249695226"
"8300B1078201","Louth, Louth","53.9506813735112","-6.54076673949707"
"8300B1078301","Tallanstown, Mullacrew","53.9377724814811","-6.53972465581621"
"8300B1078401","Tallanstown, Tallanstown","53.9195077904584","-6.54760903192956"
"8300B1079501","Dundalk, Muirhevnamuir (Ashbrook)","53.9900935199888","-6.38048020610224"
"8300B1079701","Dundalk, Fatima","54.020178027924","-6.42823987977776"
"8300B1079901","Dundalk, Bay Estate Dundalk","53.9974794255762","-6.37438200433655"
"8300B1082601","Morning Star","53.7367733585149","-6.41906815887913"
"8300B108311","Newfoundwell (Hanrattys)","53.7199776297442","-6.34141995421823"
"8300B108321","Newfoundwells (Opp St Jospehs)","53.7244963018042","-6.33221012626422"
"8300B108331","Newfoundwells (St Josephs)","53.7241000980796","-6.33280166674552"
"8300B108341","Drogheda (Bothar Brugha Church)","53.7205532786174","-6.34991321768999"
"8300B1086101","Baltray, Baltray","53.7372854146876","-6.26759629861082"
"8300B1086301","Termonfeckin, Termonfeckin","53.7615596532726","-6.27187548854598"
"8300B1086501","Clogherhead, Clogher Village","53.7917188312661","-6.23894255220407"
"8300B1086601","Clogherhead, Hackets Cross","53.7981572524315","-6.25453698529499"
"8300B1087501","Ravensdale, Ravensdale","54.0553109384845","-6.33757360617645"
"8300B108761","Ardee (Church of the Nativity)","53.8525579421673","-6.5382546869372"
"8300B108771","Ardee (Monastery National School)","53.8523282648169","-6.53858189225919"
"8300B1089101","Carlingford, Carlingford","54.040822883017","-6.18524417010889"
"8300B108921","Sloans Rd (Tains Village)","54.0738703582808","-6.24098668152672"
"8300B1089301","Omeath, Omeath","54.0875873266376","-6.25845988619839"
"8300B108941","Ferryhill (Cornamucklagh House)","54.1089815086739","-6.28697434162517"
"8300B1089701","Knockbridge, Knock Bridge Louth","53.9715797186403","-6.48659293697752"
"8300B109121","Collon (Opp Donegans Pub)","53.7784667580454","-6.48670762510963"
"8300B109141","Castletown Rd (Graveyard)","54.0154419992717","-6.42344377237101"
"8300B109151","Beechmount Drive (Skateboard Park)","54.0088355025902","-6.41994025667837"
"8300B109161","Castletown Rd (Woodview)","54.0131577015888","-6.41307781123326"
"8300B109171","Seatown Place (The Windmill)","54.0055785670561","-6.38920047188123"
"8300B109181","Point Rd (Opp Army HQ)","54.0071726234677","-6.3820902725052"
"8300B109191","Dundalk Rd (Riverside Est)","54.0034196772262","-6.36839918877895"
"8300B109201","Blackrock Rd (Opp Kingswood Est)","53.9918571218261","-6.37066624396759"
"8300B109211","Hoey's Lane (Doolargy Est)","53.986930852047","-6.38253961024876"
"8300B109221","Hoey's Lane (DKIT)","53.9865738458256","-6.39277043269607"
"8300B109231","Dundalk (Park St Russells Bus Saloon)","54.0021551592631","-6.40406892506132"
"8300B109241","Tom Bellew Ave (Garrybawn Est)","53.9912290877035","-6.38539268993764"
"8300B109251","Little Muirheavna Rd (Road 1)","53.992241075209","-6.38245578090296"
"8300B109401","Scotch Hall","53.7134971349023","-6.34788658190073"
"8300B109411","Fishermanswarf (Upper Mell)","53.7191070467265","-6.37230436620954"
"8300B109441","Hunterstown (Opp Travellers Rest)","53.8279671383177","-6.53365741802193"
"8300B109461","Ardee (Lidl)","53.8454808139101","-6.5386380581016"
"8300B109471","Hunterstown (Travellers Rest)","53.8273432095511","-6.53334500893124"
"8300B1095101","Morning Star","53.7367889253654","-6.4188856719005"
"8300B109521","Dundalk (Ardee Rd Grammar School)","53.9981821649354","-6.41079515045296"
"8300B1095401","Knockbridge, Knock Bridge Louth","53.9715873579077","-6.48648595535527"
"8300B109551","Dundalk (Ardee Rd Garda Station)","53.9981941713582","-6.41102349449392"
"8300B1095601","Louth, Louth","53.9507187859643","-6.54088731962549"
"8300B109571","Mullacrew Cross (Northbound)","53.9377548854872","-6.53975573253072"
"8300B1095801","Tallanstown, Tallanstown","53.9198244102506","-6.54778073534362"
"8300B109591","Ardee (Sliabh Breagh)","53.8469236839036","-6.5390437389428"
"8300B109631","Carolls Cross","53.9445191156372","-6.38308439225179"
"8300B109641","Dromiskin, Dromiskin Cross","53.9322149417395","-6.40655654506917"
"8300B109661","Annagassan (Opp Glyde Inn)","53.8822007459163","-6.34279250526048"
"8300B110041","Rices Bridge (Kilcurly Jct Eastbound)","53.9918167851187","-6.46732915518381"
"8300B110051","Stonethrough (Knockbridge Jct Eastbound)","53.9856460184635","-6.49747368210343"
"8300B110061","Channonrock (The Rock Inn Eastbound)","53.972182729061","-6.55080797638346"
"8300B111311","Bellurgan (Opp Service Station)","54.0157458491041","-6.32047345344795"
"8300B111481","Drogheda Grammar School","53.7191016931044","-6.30516440615375"
"8300B111491","Marsh Road, Weirhope","53.7149837176775","-6.33581366557843"
"8300B111501","Scotch Hall","53.7135965703729","-6.34792813596826"
"8300B111511","Drogheda, Opp Weirhope","53.7151866737827","-6.33489659436162"
"8300B111701","Termonfeckin (southbound stop)","53.761191636266","-6.27066201943944"
"8300B1260101","Ballsgrove (No 230)","53.7116705352044","-6.36147166643722"
"8300B1260201","Marion Park (Costcutter Shop)","53.7084368559398","-6.35635595769555"
"8300B1260601","Moneymore (No 7)","53.7259491400937","-6.35473331084301"
"8300B1260701","Bothar Brugha (Creche)","53.7200370143167","-6.35616118121349"
"8300B1260801","Brookeville (No 7)","53.7246017443238","-6.34695113503418"
"8300B126121","Drogheda (Patrick Street SC)","53.7179721296887","-6.35501440998248"
"8300B1261301","Meadowview (Opp Cul De Sac Entr)","53.706412966947","-6.34643731432777"
"8300B1262201","West Street Drogheda","53.7150010901752","-6.35267591590242"
"8300B126231","Yellowbatter Shops","53.7215185910043","-6.34496577694817"
"8300B1262401","Scarlet Street (Old Fire Station)","53.7200720346782","-6.34109803190588"
"8300B1262501","Dominick Street (Opp Church)","53.7144718026492","-6.35536311871856"
"8300B1262601","St. Finians Park","53.7086340485278","-6.36814899583631"
"8300B1262701","Rowan Heights","53.7117459626265","-6.37558821863184"
"8300B1262801","Drogheda (Opp Hillview Estate)","53.7146140899359","-6.37103854575437"
"8300B1262901","Rathmullen Rd (Opp Playground)","53.7149311757466","-6.36199640929169"
"8300B1263001","Mary Street (Jctn Dublin Road)","53.7129504409169","-6.34604453984386"
"8300B131211","Dundalk (County Louth Hospital)","53.9885805280019","-6.39902187714991"
"8300B1312401","Blackrock (Dun), Green Gates X","53.9627219997519","-6.38672340772479"
"8300B1314101","Castlebellingham, Castlebellingham Paul's","53.8975220146701","-6.38952569909552"
"8300B131451","Kilsaran (St Marys Villas)","53.8882536643679","-6.38866501049677"
"8300B1316301","Dunleer, Dunleer","53.8253058595346","-6.39460620449739"
"8300B131801","Mullary Cross (Opp Valley Inn)","53.798911339758","-6.39402070296377"
"8300B1319801","Monasterboice (Monasterboice Inn)","53.7683987141706","-6.39867480605417"
"8300B132051","Killeneer (Cockle Rd Cross Sbound)","53.7656762257194","-6.39536539493983"
"8300B133581","Haggardstown (Opp Sextons)","53.9630147558232","-6.38710835720122"
"8300B1359401","Drogheda (M1 Retail Park)","53.7270929973629","-6.38730258064852"
"8300B1359501","Drogheda, Drogheda Bus Station","53.7117215574068","-6.35339490551983"
"8300B1360201","Termonabbey (Aston Village)","53.7328842374733","-6.32981665048642"
"8300B136131","Drogheda (Donore Rd The Thatch Pub)","53.7052778538554","-6.37447413801309"
"8300B136141","Drogheda (Donore Rd FBD)","53.7050721272282","-6.37520913641507"
"8300B1371801","Drogheda (Rail Station)","53.7121627290798","-6.33783391489129"
"8300B1389201","Grangebellew, Grangebellew","53.8160449681093","-6.33563872664407"
"8300B138931","Dundalk (Dublin Rd McDonalds)","53.9986900012276","-6.40571160362728"
"8300B138941","Dundalk (Opp County Louth Hospital)","53.9891762123971","-6.39921252618922"
"8300B138951","Dundalk I.T (Main Gate)","53.9833884890405","-6.39516505190474"
"8300B138961","Castlebellingham (The Village Store)","53.8975818314809","-6.38929514652422"
"8300B138971","Dunleer (The Dunleer Inn)","53.8319086887217","-6.39506773431852"
"8300B139141","Georges Street","53.7165921910437","-6.35728037409893"
"8300B139151","Drogheda (North Rd Esso)","53.7239161862075","-6.36313226488761"
"8300B139161","Killeneer (Opp Killeneer Cottages)","53.7497950529204","-6.38195987941679"
"8300B139171","Killeneer (Cockle Rd Cross Nbound)","53.7651440097358","-6.39521883502885"
"8300B139181","Monasterboice Inn","53.7696085328153","-6.40043403605941"
"8300B139191","Mullins Cross (Northbound)","53.8577554009054","-6.40175580809582"
"8300B139201","Kilsaran (St Marys Villas)","53.8878288305442","-6.38848358138343"
"8300B139211","Greengates Cross (Northbound)","53.9573545555733","-6.38589445264294"
"8300B139241","Greengates Cross (Southbound)","53.9559810375385","-6.38533799250611"
"8300B139251","Kilsaran (St Olivers Park)","53.8891943823478","-6.3884462551738"
"8300B139261","Mullins Cross (Southbound)","53.8579128378452","-6.40143055787755"
"8300B139271","Mullary Cross (Valley Inn)","53.7988823592487","-6.39387000040796"
"8300B139291","Killeneer (Killeneer Cottages)","53.757066641126","-6.38601779986681"
"8300B139301","Kilsaran (St Olivers Park)","53.8894126175357","-6.38863563790705"
"8300B139311","Drogheda (Institute of Further Education)","53.7284197577169","-6.35794077286112"
"8300B139321","Newtown Rd (Convent School)","53.7206836528091","-6.32755752331512"
"8300B139331","Newry Rd (Spar)","54.0136261284596","-6.40163092859054"
"8300B139341","Newry Rd (Arthurs Shop)","54.0193627386195","-6.39645107677082"
"8300B139351","Dowdallshill GAA","54.024081389645","-6.39514007108051"
"8300B139361","Dowdallshill (Opp Cemetary)","54.021963992164","-6.39540474692616"
"8300B139371","Ballymac Roundabout (Strandhill)","54.0348246669312","-6.38068069921531"
"8300B139381","Ballymacscanlon (Hotel)","54.0325013104982","-6.35912369377246"
"8300B139391","Rockmarshal (Fitzpatricks)","54.0082316772903","-6.29297722677074"
"8300B139401","Annaloughan (Northbound)","54.0022397056003","-6.27677735696892"
"8300B139411","Lordship (GAA Grounds)","53.9998714828074","-6.26396999226911"
"8300B139421","Mount Bagnel (Post Office)","53.997161428369","-6.2358639168419"
"8300B139431","Riverstown Louth (Martins)","53.9943316225647","-6.21888557171205"
"8300B139441","Grange Cross Louth (Northbound)","54.0048395205657","-6.17764127023205"
"8300B139451","Whitestown Cross (Templeton Rd)","53.9974458471177","-6.15837847321206"
"8300B139461","Whitestown (Cooley Inn)","54.0197513017613","-6.14544293876505"
"8300B139471","Omeath (Church)","54.0838949648781","-6.25297427946382"
"8300B139521","Ferryhill (Cornamucklagh House)","54.1090492276805","-6.2866809556188"
"8300B139531","Omeath (Corner House Shop)","54.0875117131218","-6.25820318197657"
"8300B139541","Omeath (Church)","54.0840299112391","-6.25298389524115"
"8300B139551","Sloans Rd (Tains Village)","54.0741272028865","-6.24134258081182"
"8300B139561","Carlingford (Opp Tourist Office)","54.0408760801976","-6.18519604327526"
"8300B139571","Greenore (Opp Post Office)","54.0313636229903","-6.13271306352929"
"8300B139581","Whitestown (Cooley Inn)","54.0196294043694","-6.14453264669087"
"8300B139591","Whitestown (School)","54.0118552335241","-6.13813412783969"
"8300B139601","Whitestown Cross (Templeton Rd)","53.9974296226669","-6.15790632260671"
"8300B139611","Grange Cross Louth (Northbound)","54.0046679494655","-6.17758774208387"
"8300B139621","Maguires Cross (Southbound)","54.0005796022062","-6.17823927874663"
"8300B139631","Bush School (Dundalk)","53.998892795559","-6.18912820506635"
"8300B139641","Riverstown Louth (Martins)","53.9941813639253","-6.21844966620889"
"8300B139651","Mount Bagnel (Post Office)","53.9970722829234","-6.2359134470475"
"8300B139661","Jenkinstown (Louth), Gyles Quay Cross","53.9971543934843","-6.24028771872441"
"8300B139671","Lordship (GAA Grounds)","53.999781224212","-6.26394324003903"
"8300B139681","Bellurgan (Service Station)","54.0152172168815","-6.31994539499555"
"8300B139691","Ballymacscanlon (Hotel)","54.0325353366036","-6.3596414018137"
"8300B139711","Ravensdale Church","54.0430616993269","-6.33174080301756"
"8300B139721","Dowdallshill (Opp GAA Grounds)","54.023837032475","-6.39501211487246"
"8300B139731","Dowdallshill (Opp Cemetary)","54.0216651300246","-6.39523310772405"
"8300B139741","Newry Rd (Opp Arthurs Shop)","54.01894832781","-6.39637545222892"
"8300B139751","Newry Rd (Opp Spar)","54.0136057297394","-6.40144860153811"
"8300B139801","Carrickarnon (Opp Carrickdale Hotel)","54.0995050853627","-6.36086785810725"
"8300B139811","Ravensdale, Ravensdale","54.0555042045873","-6.33790192916525"
"8300B139821","Ravensdale South (Crillys Shop)","54.0498507787934","-6.34437407626053"
"8300B139831","Ravensdale South (Opp Crillys Shop)","54.0498747825492","-6.3441593065558"
"8300B139841","Dundalk, New Inn Louth","54.0361383013242","-6.38279760589612"
"8300B139851","Dundalk, New Inn Louth","54.0360627966518","-6.38319748837512"
"8300B139861","Dunleer, Dunleer","53.8294671095704","-6.39394572228335"
"8300B139871","Ravensdale Church","54.0429590847343","-6.33147005329529"
"8300B139881","Faughart Lower (National School)","54.0446652698563","-6.38869686354482"
"8300B139891","Faughart Upper (St Brigids Shrine)","54.0529048364617","-6.39732826348407"
"8300B139901","Faughart Upper (Mountpleasant)","54.0473104547256","-6.38022573849914"
"8300B139911","Dundalk (Rail Station)","54.0001078123572","-6.41233872594768"
"8300B139921","Dundalk (Rail Station) (Kennedys Pub)","54.0000239484728","-6.41211310644098"
"8300B1413201","Dromiskin, Dromiskin Cross","53.9325861490301","-6.40608551566003"
"8300B1523101","Ardee, Ardee Tenanty's","53.8600174836922","-6.54123285661006"
"8300B1523401","Collon, Collon","53.7782752401847","-6.48648691590572"
"8300B1524301","Ardee, Ardee By Pass","53.864703844038","-6.54157154588369"
"8300B1524401","Ardee (Fair Green)","53.8601311934276","-6.54171539231533"
"8300B152461","Ardee (By Pass Eastbound)","53.8647276533089","-6.54131224059006"
"8300B554691","Carolls Cross","53.9445134127407","-6.38332835510195"
"8310B1001001","Kiltale (Stores)","53.5254633326706","-6.66964493382132"
"8310B1003201","Huntsman Inn","53.6408794881261","-6.23590180623861"
"8310B1003301","Bellewstown Cross","53.6543894948965","-6.25871255138633"
"8310B1003401","Whitecross (Opp School)","53.6678920587205","-6.2788138773127"
"8310B1003601","Ross Na Ri (Moore Hall Lodge)","53.6983287192413","-6.30942201068837"
"8310B1003701","Deepforde Estate","53.7034131987509","-6.31562527578934"
"8310B1006301","Drogheda (Dublin Rd  Deepforde)","53.7029688707095","-6.31406777373006"
"8310B100651","Julianstown, Julianstown","53.6725328646374","-6.28529955742068"
"8310B1006601","Whitecross (School)","53.6670765911771","-6.27710672644738"
"8310B1006701","Mosney Cross (Southbound)","53.6570865232805","-6.26185438742781"
"8310B1006801","Bellewstown Cross (Southbound)","53.6537832427354","-6.25781466384225"
"8310B1006901","Opp Huntsman Inn","53.6408854193211","-6.23508483286551"
"8310B1007001","Gormanstown Cross (Southbound)","53.6358545663669","-6.22127607156962"
"8310B1009601","Ashbourne (Opp Campus s/station)","53.5049015827735","-6.39192099950637"
"8310B1009801","Ashbourne (Credit Union)","53.5137904376438","-6.40197375139127"
"8310B1009901","Ashbourne (Johns Wood)","53.5163652902151","-6.40634045857461"
"8310B1010001","Ashbourne (Opp Pillo Hotel)","53.5250930435382","-6.41518317539221"
"8310B1010101","Bullstown South","53.4830686291784","-6.37254078497878"
"8310B101031","Kilmoon Cross (Opp Top Garage)","53.5732338578034","-6.4469352775885"
"8310B1010401","Ashbourne (Opp Johns Wood)","53.5166715224617","-6.40638928441559"
"8310B1010501","Ashbourne (Opp Dunnes Stores)","53.5134890686402","-6.4009446586512"
"8310B1010601","Ninemile Stone (B&B)","53.4972602661938","-6.38512588572771"
"8310B1010801","Newtown Cross (South)","53.4685521955564","-6.35931371845694"
"8310B1011701","Fairyhouse Cross (Southbound)","53.4503962106567","-6.47667022293961"
"8310B1011801","Ballybin Rd (Ash Business Park)","53.5158782493951","-6.41839223698668"
"8310B1011901","Ratoath (Opp Ballybin Roundabout)","53.5044966944213","-6.45178610569745"
"8310B1012001","Ratoath (Steeplechase)","53.5087463276189","-6.46981399400568"
"8310B1012101","Ratoath (Opp Steeplechase)","53.50906958128","-6.47189805570667"
"8310B1012201","Ashbourne (The Bridge)","53.5086675107586","-6.39593968689372"
"8310B1012301","Ratoath (Ballybin Roundabout)","53.5044953300464","-6.4509871566537"
"8310B1012401","Ballybin Rd (Opp Ash Business Park)","53.5159351400774","-6.41861631165103"
"8310B1012901","Fairyhouse Cross (Toll Bridge)","53.4553300931524","-6.48229093735779"
"8310B1013001","Porterstown Lane (Rathbeggan Lakes)","53.4679396162679","-6.49292701284882"
"8310B1013101","Rathbeggan (Opp Des Kellys)","53.4782123989813","-6.50508281616396"
"8310B1013201","Ryans Town (Bush Lane)","53.4834529288562","-6.51523510423829"
"8310B1013301","Dunshaughlin (Opp Workhouse)","53.4954088227952","-6.52777939489253"
"8310B1013401","Dunshaughlin (Opp Business Park)","53.5057762071136","-6.5398877480333"
"8310B1013501","Opp Lismullen","53.5886089967645","-6.59579253162244"
"8310B1013601","Garlow Cross (Ras Na Ri)","53.6031666486927","-6.61957673472105"
"8310B101371","Johnstown Shopping Centre Navan","53.6428981060596","-6.65979598214842"
"8310B1013801","Navan (Level Crossing)","53.6553447781428","-6.70381930835668"
"8310B1013901","Navan (Navan Ford)","53.6726718914399","-6.74001991241199"
"8310B1014101","Fairyhouse Opp Racecourse","53.4850322943353","-6.47366634799303"
"8310B1014201","Kells (Opp Business Park)","53.7364895112019","-6.90175421023434"
"8310B1014301","Carnaross","53.7505811520532","-6.95506223696816"
"8310B1014401","Carnaross North","53.7538705170187","-6.96336613542109"
"8310B1016601","Bullstown North","53.4826168078773","-6.3723621991565"
"8310B1017001","Carnaross North (Carnaross Fire Places)","53.7540502137836","-6.96336171063799"
"8310B1017101","Carnaross Village","53.750992470866","-6.95585565172103"
"8310B1017201","Kells (Business Park)","53.7358965605808","-6.8998143713895"
"8310B1017301","Kells (Cavan Road)","53.7306136010251","-6.88440282325175"
"8310B1017401","Kilmainham (Southbound)","53.7149949086669","-6.82797375893072"
"8310B1017501","Bloomsbury Cross (Southbound)","53.7077751955456","-6.79951560649685"
"8310B1017601","Opp Silver Tankard","53.6864548636205","-6.76822268948554"
"8310B1017701","Navan (Opp Navan Ford)","53.6723183851965","-6.73888021892493"
"8310B1017801","Navan (Woodies)","53.6548020298217","-6.70100691907318"
"8310B1017901","Dalgan Pk (Opp St Columbans)","53.6089179357993","-6.62733820846078"
"8310B1018001","Navan (Opp Ardboyne Hotel)","53.641968853552","-6.67076011874211"
"8310B1018101","Navan (Kilcarn Bdg Opp Old Bridge Inn)","53.6318734154485","-6.66324511542926"
"8310B1018201","Garlow Cross (Opp Ras Na Ri)","53.6030164569768","-6.619022555629"
"8310B1018301","Opp Tara Cross","53.5927415312687","-6.60332962907904"
"8310B1018401","Lismullen","53.5895298307511","-6.59691001158074"
"8310B1018501","Ashbourne (Garden City Stop)","53.5086728532771","-6.39566809824021"
"8310B1018601","Ross Cross Meath (Southbound)","53.5671185694823","-6.57967095434839"
"8310B1018701","Dunshaughlin (Business Park)","53.505819837267","-6.53978071818868"
"8310B1018801","Dunshaughlin (Workhouse)","53.4959623973801","-6.52821238441216"
"8310B1018901","Ryans Town (Opp Bush Lane)","53.4833000174314","-6.51450212228976"
"8310B1019001","Rathbeggan (Des Kellys)","53.4783735397179","-6.50503195279586"
"8310B1019101","Porterstown Lane (Op Rathbeggan Lakes)","53.4672714628696","-6.49197164361394"
"8310B1019201","Sheaf of Wheat (Opp Topaz Garage)","53.4299727993378","-6.46028996197827"
"8310B1019301","Clonee (Opp Lidl)","53.4105848910067","-6.44217255724669"
"8310B101981","Ratoath (Fairyhouse Rd Millview)","53.5019439267815","-6.46710440649834"
"8310B101991","Fairyhouse Rd (Eastbound)","53.4698450510274","-6.47100294508612"
"8310B102001","Fairyhouse Rd (Westbound)","53.4703284277489","-6.47084999917647"
"8310B1029301","Batterstown (Rathregan Court)","53.4710860401874","-6.53930139605848"
"8310B1029401","Opp Dunsaney Lodge","53.5216745916581","-6.65154563399882"
"8310B1029701","Trim (Dublin Rd)","53.5530742974477","-6.7749676527453"
"8310B1029801","Trim (Lidl)","53.5621807755915","-6.78844129067673"
"8310B1029901","Trim (Opp Trim Fold)","53.5624182560911","-6.7950462941579"
"8310B1030201","Athboy (Opp Darnley Lodge)","53.6217399057861","-6.92100069740218"
"8310B1030301","Trim (Trim Fold)","53.5629938362297","-6.79687159885509"
"8310B1030401","Trim (Opp Lidl)","53.5622867561186","-6.78825711750722"
"8310B1030501","Trim (Bypass)","53.5565769898288","-6.78177921816154"
"8310B1030601","Trim (Opp Boyne Bridge By Pass)","53.5531445443996","-6.7853791924234"
"8310B1030701","Trim (Opp Knightsbrook)","53.5540498681863","-6.76496334997109"
"8310B1030801","Scurloughstown (Opp Jack Quinns)","53.5489812709425","-6.74427069971067"
"8310B1030901","Kiltale (Opp Stores)","53.5256090935301","-6.66982135610925"
"8310B1031001","Dunsaney Lodge","53.5213451344278","-6.64942967047528"
"8310B1031101","Batterstown (Opp Rathregan Court)","53.4713676675803","-6.53954780414739"
"8310B1031201","Batterstown (Opp Caffreys Pub)","53.4692920489522","-6.53665170009657"
"8310B1031301","Kildalkey (Church)","53.570838402408","-6.9052813099305"
"8310B103141","Kildalkey, Kildalkey (Opp Church)","53.5710283186237","-6.90639367872729"
"8310B1031501","Trim Castle St (Opp Trim Castle)","53.5548553470489","-6.79102014829234"
"8310B103241","Clonard, Opp Monastery Inn","53.4510508692591","-7.02045337190321"
"8310B103351","Clonard, Donovan's","53.4511845401896","-7.02031479569767"
"8310B103381","Enfield, Main Street, SuperValu","53.4140677623085","-6.82782529777324"
"8310B103511","Enfield, Enfield Train Station","53.4152507760096","-6.83483296804977"
"8310B1036901","Ballivor (Opp Church)","53.5329551624649","-6.96347500354285"
"8310B1037001","Rathmoylon (Village Inn)","53.4880649721158","-6.80470443128118"
"8310B1037101","Summerhill (Opp Watsons)","53.4822018032249","-6.73453674392484"
"8310B1044801","Longwood, Longwood","53.4550703043447","-6.92456800611573"
"8310B1045201","Tara Cross","53.5925061873951","-6.60318632666704"
"8310B1046501","Dunshaughlin (Bank Of Ireland)","53.5124480096977","-6.53940205030288"
"8310B1050201","Ratoath, Ratoath Auld Stand","53.5073653658637","-6.46026005134404"
"8310B1055701","Summerhill (Fisk Cars)","53.4803713895682","-6.73058356657467"
"8310B1055801","Navan (Opp Fire Station)","53.6555671350365","-6.68711024328862"
"8310B1056001","Dunshaughlin (Euromart Shop)","53.5128988127984","-6.53878341588109"
"8310B106521","Ashbourne (The Briars Northbound)","53.4998099208498","-6.38757647087927"
"8310B106531","Ashbourne (The Briars Southbound)","53.4997789056417","-6.38727616974165"
"8310B1072401","Castletown Cross","53.7678148021859","-6.72532547733658"
"8310B1072701","Donore, Donore","53.6921835561138","-6.41745362251349"
"8310B1087001","Bettystown, Bettystown","53.6983882206815","-6.24422008556104"
"8310B1087101","Bus Stop at Train Station","53.6782947570823","-6.240136222707"
"8310B1089801","Balrath, O'Brien's Cross Meath (R150)","53.6405565889409","-6.49813749931229"
"8310B1090201","Bru na Boinne (Visitor Centre)","53.6946309186792","-6.44649766018134"
"8310B1090701","Battle of the Boyne Visitor Centre","53.7240744896206","-6.42318157269568"
"8310B109131","Slane (The Courtyard)","53.7088925786918","-6.54516370580429"
"8310B1093301","Bus Stop at Train Station","53.6785662236957","-6.24026114611356"
"8310B1093401","Bettystown, Bettystown","53.6982020358166","-6.24439443217576"
"8310B1093701","Bettystown, Mornington Tower Cross","53.7222069588543","-6.25786628792926"
"8310B109841","Navan, Clonmaggaden Road","53.667923099257","-6.68616620403178"
"8310B109851","Navan, Opposite Leisure Link","53.6654819065235","-6.69468602980023"
"8310B109861","Navan, Ratholdren Road","53.6620718556401","-6.69185596527035"
"8310B109871","Navan, Blackwater Abbey","53.6597250830778","-6.68764675317115"
"8310B111351","Laytown, Creevelea House","53.681867239297","-6.23798887199187"
"8310B111361","Laytown, Inse Bay","53.6850853271619","-6.24107940030907"
"8310B111371","Sacred Heart Church","53.6886600445837","-6.24214171096857"
"8310B111381","Bettystown (Brookeside)","53.6956679402975","-6.24319750632502"
"8310B111401","Bettystown (Tesco)","53.6975417474456","-6.24840500938983"
"8310B111411","Bettystown, Eastham Rd (The Cloisters)","53.7015897129596","-6.25603721752414"
"8310B111441","Donacarney (Opp Castle Glen)","53.7110454769677","-6.27658288645224"
"8310B111451","Mornington (Opp Coney Hall)","53.7184485517653","-6.25652156822023"
"8310B111471","Tower Cross, Mornington Court","53.7225593734066","-6.25985202060768"
"8310B111521","Mornington (Coney Hall)","53.7182825178924","-6.2568466343501"
"8310B111531","Donacarney (Castle Glen)","53.7108631651422","-6.27702967651398"
"8310B111541","The Village Hotel","53.7016488412085","-6.25577728534264"
"8310B111551","Bettystown Village (McDonaghs Pub)","53.6975472810096","-6.2487834005499"
"8310B111561","Bettystown, Bettystown Village","53.6953780685263","-6.24304299438983"
"8310B111571","Sacred Heart Church","53.6884487893519","-6.24183253925086"
"8310B111581","Laytown, Laytown Race Track","53.6851621658035","-6.24080367002659"
"8310B111591","Laytown (Opp Creevelea House)","53.6817103120171","-6.23770777955765"
"8310B111691","OBriens Cross (R150 eastbound)","53.6406649586628","-6.49817902053504"
"8310B111791","Mornington (Meath), Fairways Lawn","53.7104906604871","-6.25009402273221"
"8310B111801","Drogheda, Opposite Fairways Lawn","53.7106431363786","-6.25007254414555"
"8310B1235401","Harlockstown (Northbound)","53.4967274116869","-6.40299234711098"
"8310B123551","Harlockstown (Eastbound)","53.4968115544024","-6.40390862686661"
"8310B1268401","Johnstown Meath (Church)","53.6363827727116","-6.64784439528321"
"8310B1309301","Moynalty (Opp Service Station)","53.7893523874936","-6.88644169594461"
"8310B1310701","Oldcastle, Oldcastle","53.7692560897261","-7.16227917571444"
"8310B1314301","Moynalty, Moynalty","53.7895103372861","-6.88699905000629"
"8310B1315501","Kilmainhamwood, Kilmainham Wood","53.8496842109251","-6.80646208963364"
"8310B1317301","Nobber, Nobber","53.8212828254346","-6.74710840232783"
"8310B1319604","Kells (Meath), Kells","53.7266811053038","-6.87327777231149"
"8310B1320301","Ballivor, Ballivor","53.5329019050848","-6.96355172745433"
"8310B1320901","County Meath, Kilmainham","53.716524793933","-6.83187035169752"
"8310B1321201","Wilkinstown","53.7348116802398","-6.71160661620711"
"8310B1321501","County Meath, Bloomsbury Cross","53.7081016321001","-6.80070296646566"
"8310B1321901","Gibstown, Kilberry","53.7050959209881","-6.68472061024674"
"8310B1323301","Navan, Proudstown","53.5921116510502","-6.54150485081097"
"8310B1323401","County Meath, The Tankard","53.686138076807","-6.76800484056137"
"8310B1324101","County Meath, Mitchells Cross","53.6820621851579","-6.75970696094281"
"8310B1324201","Navan, Mooretown","53.6422091656626","-6.62051012925149"
"8310B1325401","Rathmolyon, Rathmoylan Flattery's","53.4879865198314","-6.80494774026777"
"8310B1325501","County Meath, Scurloughstown","53.5484758737825","-6.74321423474991"
"8310B1326201","Julianstown, Julianstown","53.6742044683282","-6.28654852422079"
"8310B1326301","Kentstown, Kentstown","53.6280353747027","-6.53204130121421"
"8310B1328101","Batterjohn, Batterjohn X Kiltale","53.5216052044045","-6.65017545436856"
"8310B1328301","Duleek, Duleek","53.6553921240247","-6.41633584005951"
"8310B1328401","Julianstown, Gormanstown X","53.6382084685547","-6.22666689423411"
"8310B1328701","Longwood (Spar)","53.4548214291227","-6.92487543469716"
"8310B1329001","County Meath, St Columbans","53.6092047541172","-6.62805429990972"
"8310B1329201","Balrath Cross","53.6229375241459","-6.48784830479552"
"8310B1330301","Rathfeigh, Rathfeigh Cross (near school)","53.5903712642591","-6.50176083149371"
"8310B1330601","Drumree, Warrenstown","53.5319751039317","-6.63578659019062"
"8310B1331701","Tara, Ross Cross Meath","53.5663279924724","-6.57969744628978"
"8310B1332301","Enfield, Main Street","53.4139839636511","-6.82844435400106"
"8310B1332801","County Meath, Kilmoon Cross","53.572127815368","-6.44896895034471"
"8310B133301","Batterstown, Pelletstown X","53.4890649558236","-6.57534835623526"
"8310B1333101","Batterstown, Pelletstown X","53.488985357466","-6.57545651197765"
"8310B1333301","Batterstown, Batterstown","53.4691116351558","-6.53659765580423"
"8310B1333801","Dunshaughlin, Dunshaughlin Gogan's","53.5131707611595","-6.53970891662946"
"8310B133601","Woodlands","53.5065634506187","-6.46919912738504"
"8310B133611","Steeplechase Green","53.5116658068074","-6.4718046420699"
"8310B133621","Steeplechase Green","53.5117650104232","-6.47183122835404"
"8310B1336301","Ashbourne, Ashbourne Kelly's","53.5116700407247","-6.39799752968637"
"8310B1339001","Dunboyne, Fairyhouse Cross","53.4558102412198","-6.47623550174238"
"8310B1339401","Ashbourne, Ninemile Stone","53.4973178289789","-6.38539501277494"
"8310B1340701","Newtown Cross (North)","53.4682824971766","-6.35930905853253"
"8310B1340901","Dunboyne, Sheaf Of Wheat","53.430076853968","-6.46069252570937"
"8310B1341701","Clonee (Lidl)","53.4104710477244","-6.44240235051865"
"8310B134261","Holy Trinity Church","53.5075774197972","-6.46067450708781"
"8310B134271","Woodlands Roundabout","53.5090471824778","-6.47155209004697"
"8310B134401","Warrenstown Arms","53.5118633258938","-6.61874651853272"
"8310B134411","Warrenstown Arms","53.5118881879997","-6.61856477702799"
"8310B134621","Kentstown, Kentstown","53.6278027292322","-6.53212497284751"
"8310B134631","Skryne Road","53.5112447766774","-6.46489907727544"
"8310B134651","Skryne Road","53.5112977095717","-6.46482177480829"
"8310B134661","Rathoath (Fairyhouse Rd Opp Millview)","53.5008629162546","-6.46761070734743"
"8310B1347001","Ratoath, Fairyhouse Racecourse","53.4901208136202","-6.4716751828636"
"8310B135231","Kells (Meath), Kells","53.7267087574242","-6.87430751032338"
"8310B1352401","Kells (SuperValu)","53.7293687470882","-6.88101074706945"
"8310B1353901","Kells (Meath), Kells","53.7267710938876","-6.87329052036374"
"8310B1355001","Dunsany Village (Pianoforte)","53.541776346253","-6.6213336578815"
"8310B1355101","Swainstown (Northbound)","53.5553523582383","-6.64695820393789"
"8310B1355201","Kilmessan (Northbound)","53.5591938694464","-6.65687345855876"
"8310B1356101","Ringlestown House (Northbound)","53.5692844630736","-6.64631718903319"
"8310B1356201","Tara Golf Club","53.5913739643297","-6.63512762041244"
"8310B1356301","Ballinter Cross (Northbound)","53.5982433866757","-6.64172008373889"
"8310B1356401","Cannistown School (Opp School)","53.6213342398489","-6.66672244586479"
"8310B1356601","Navan (Shopping Centre)","53.6540553432258","-6.68611336649016"
"8310B1356603","Navan (Shopping Centre)","53.6540553432258","-6.68611336649016"
"8310B1356801","Navan (Johnstown Road)","53.643460544","-6.659460532441"
"8310B1356901","Doreys Forge (Shanks Mare Pub)","53.4957092570417","-6.68536209086124"
"8310B1357101","Navan (Kilcarn Bridge)","53.6350712656836","-6.665518098043"
"8310B1357301","Ashbourne (Pillo Hotel)","53.524516506079","-6.41440532064321"
"8310B1358101","Trim, Trim Castle","53.5531201953408","-6.78563645569262"
"8310B1358901","Athboy, Athboy","53.6218987726493","-6.92067920025508"
"8310B1359201","Trim (Dublin Rd Knightsbrook)","53.5529416925562","-6.7751827721071"
"8310B136161","Trim (Opp Retail Park)","53.5616194769446","-6.76780716677777"
"8310B1364701","Foxtown (Southbound)","53.519258418326","-6.70865587677129"
"8310B1364801","Galtrim (Eastbound)","53.5151467033308","-6.69747184772681"
"8310B136541","Mitchells Cross (southbound)","53.6816188645307","-6.75855435629963"
"8310B136571","Navan, IDA Ireland","53.6395911563389","-6.6582221518358"
"8310B136581","Navan Business Park, Opposite IDA Ireland","53.6393262132778","-6.65783736070372"
"8310B1365901","Navan, Meath County Council","53.6440950829189","-6.66316110739212"
"8310B1366001","Kiltale (Church)","53.5246565396728","-6.67712081439227"
"8310B136611","Navan, Opp Meath County Council","53.6441445612187","-6.66356791235916"
"8310B136621","Athlumney Abbey, Ma Dwyer's Guesthouse","53.6439862978938","-6.67276876231862"
"8310B136631","Athlumney Abbey, Opp Ma Dwyer's Guesthouse","53.6433402132587","-6.67204794906516"
"8310B1367201","Pike Corner (Northbound)","53.5366335062675","-6.70889658081904"
"8310B1367301","Curtistown (Northbound)","53.5525503665612","-6.68174438080491"
"8310B1367401","Kilmessan (Church)","53.5608388682809","-6.66171214897164"
"8310B1367501","Ennistown Stud (Northbound)","53.5686073994027","-6.68634806811934"
"8310B1367601","Bective Cross (Crocketts Pub)","53.5800912298067","-6.69768086587144"
"8310B1367701","Connell's Cross (Northbound)","53.5860174271883","-6.71045787041634"
"8310B1368601","Oberstown (Old Ross Rd Northbound)","53.5768803850117","-6.55057638743718"
"8310B1368701","Rathfeigh (Rathfeigh School)","53.5904490897775","-6.50151638309116"
"8310B1368901","Five Rds Of Skreen (Green Rd Nbound)","53.5907040918369","-6.55437826662376"
"8310B1369001","Walterstown Church","53.6117174207555","-6.55444638002458"
"8310B1369101","Fairlands (Oldtown Rd Northbound)","53.6248246082961","-6.56370425986429"
"8310B1369201","Realtoige (Northbound)","53.6423060440539","-6.57582985659491"
"8310B1369301","Follistown (Northbound)","53.6454830255268","-6.60830296665389"
"8310B1369401","Casey's Cross (Northbound)","53.646329300016","-6.64208095934175"
"8310B1369601","Navan (Ardboyne Hotel)","53.6412179714822","-6.67031489466517"
"8310B1369801","Ratoath (SuperValu)","53.5072079164227","-6.46478867531705"
"8310B1370901","Ashbourne (Community Centre)","53.5036524357396","-6.39059643517491"
"8310B1372401","Tayto Park","53.5458081095961","-6.45838201934314"
"8310B137261","Bective, Bective Abbey (Southbound)","53.5826850061711","-6.70480515711669"
"8310B137271","Bective, Bective Abbey (Northbound)","53.582667528","-6.70485099982628"
"8310B137281","Kilmessan, Centra","53.5592751795353","-6.66011620490815"
"8310B137291","Kilmessan, Opposite Centra","53.559259577737","-6.66032802114942"
"8310B137301","Trim, Knightsbrook Hotel","53.5497319781256","-6.76718672529678"
"8310B137441","Doreys Forge (Opp Shanks Mare Pub)","53.4957323977506","-6.68501472152903"
"8310B137451","Batterjohn X / Kiltale (Southbound)","53.5217633442993","-6.6498537214723"
"8310B137461","Warrenstown (Junction Southbound)","53.531864885791","-6.63557894574074"
"8310B137471","Dunsaney Village (Opp Pianoforte)","53.5417834172427","-6.62116745608551"
"8310B137481","Swainstown (Southbound)","53.5553235281197","-6.64679309936847"
"8310B137491","Kilmessan (Southbound)","53.5592194661243","-6.65675189163933"
"8310B137501","Ringlestown House (Southbound)","53.5694007436554","-6.64626818057228"
"8310B137511","Opp Tara Golf Club","53.5914909286504","-6.63513895667026"
"8310B137521","Ballinter Cross (Southbound)","53.5984909265685","-6.64215028944653"
"8310B137531","Kennastown, Cannistown School","53.6212628722786","-6.66677004511465"
"8310B137541","Foxtown (Northbound)","53.5193423714241","-6.70893984788862"
"8310B137551","Galtrim (Westbound)","53.5149956117675","-6.6976272689907"
"8310B137561","Kiltale (Opp Church)","53.5246364022048","-6.67692537374551"
"8310B137571","Pike Corner (Southbound)","53.5365954516623","-6.70870161597897"
"8310B137581","Curtistown (Southbound)","53.5524307440531","-6.68149153447968"
"8310B137591","Kilmessan (Opp Church)","53.5607915471026","-6.66230234990895"
"8310B137601","Ennistown Stud (Southbound)","53.5684488648476","-6.68582456087242"
"8310B137611","Connell's Cross (Southbound)","53.5858926236664","-6.71055229349655"
"8310B137621","Oberstown (Old Ross Rd Southbound)","53.5768286775538","-6.55075936806992"
"8310B137631","Proudstown (Southbound)","53.5921814950975","-6.54133627397082"
"8310B137641","Five Rds Of Skreen (Green Rd Sbound)","53.5907215118382","-6.55433235417689"
"8310B137651","Walterstown (Opp Church)","53.6117154131467","-6.55428020096071"
"8310B137661","Fairlands (Oldtown Rd Southbound)","53.6248238828368","-6.56364381214424"
"8310B137671","Brownstown Cross (Navan Rd Sbound)","53.633356578042","-6.56695279397084"
"8310B137681","Realtoige (Southbound)","53.6422607658079","-6.57580113358445"
"8310B137691","Follistown (Southbound)","53.645630827957","-6.60787458712194"
"8310B137701","Mooretown (Southbound)","53.6422072490395","-6.62034382562381"
"8310B137711","Casey's Cross (Southbound)","53.6464924859142","-6.64299838318701"
"8310B137721","Johnstown Meath (Opp Church)","53.6365000767778","-6.64788600991154"
"8310B1378101","Navan (Opp Round o Pub)","53.6603575075372","-6.67977433377499"
"8310B1378201","Opposite Castletown Cross","53.7677623489563","-6.72546358838992"
"8310B1378501","Kentstown (Opp Church)","53.6275849935791","-6.53415849467463"
"8310B1378701","Kilmainham Wood (McKennas)","53.8497177292675","-6.80621795846945"
"8310B1378801","Nobber (Church)","53.8213914271153","-6.7471811043255"
"8310B1378901","Castletown Church","53.7806701106036","-6.71475427152357"
"8310B1379001","Wilkinstown (Opp Tiernans Pub)","53.7346204079896","-6.71136995091094"
"8310B1379101","Kilberry (Opp Meath Farm Machinery)","53.7053013894932","-6.68460817504997"
"8310B1379201","Navan (Round o Pub)","53.6605445049436","-6.67961718269864"
"8310B1379301","Kentstown (Church)","53.6275972217537","-6.53368937750401"
"8310B1379401","Balrath Cross (Duleek Rd)","53.6227251777033","-6.48740237157351"
"8310B138451","Navan, Abbey Road","53.6546970676411","-6.68480748359228"
"8310B138461","Navan, Abbey Road","53.6544378689338","-6.6841196429598"
"8310B138991","Duleek (Opp O Neills)","53.6579929031048","-6.41048883396596"
"8310B139111","Bective Cross (Opp Crocketts Pub)","53.5799910881773","-6.69756312952795"
"8310B139121","Navan (Fitzherbert Court)","53.6621108827776","-6.67334928579564"
"8310B139131","Duleek (Kerins Pharmacy)","53.6579272626207","-6.41096034180038"
"8310B1503501","Tower Cross (eastbound stop)","53.7221613376594","-6.25720141273482"
"8310B1523701","Slane, Slane","53.7089611360525","-6.54488867119533"
"8310B1524201","Ashbourne (AIB)","53.5112848690602","-6.39742401808697"
"8310B1553001","Castletown (Cork), Castletown Village Meath","53.7807751540047","-6.71449310632167"
"8310B3308101","Brownstown Cross (Navan Rd Nbound)","53.6333461465381","-6.56683217848029"
"8310B353101","Summerhill (The Green)","53.4810745177673","-6.73247603504332"
"8310B5620101","Navan, Navan Blackcastle Estate","53.6639743833137","-6.67525789873324"
"8310B5620601","Kennastown, Navan Bailis Downs Roundabout","53.6436319175284","-6.65951559570012"
"8310B5620801","Navan, Navan Commons Road","53.6419252696396","-6.70117580628505"
"8310DB003331","Dunboyne, Mill View","53.4159547354049","-6.46260174067547"
"8310DB003332","Dunboyne, Station Road, School","53.4183788913453","-6.47291032928899"
"8310DB003334","Dunboyne, Station Road","53.4180549772462","-6.47147763564522"
"8310DB003335","Dunboyne, Mill View","53.4160251365614","-6.45969568841964"
"8320B1028001","Edenderry (Opp Lawton & Foley)","53.3469738129497","-7.03195719307851"
"8320B1028101","Edenderry (Opp Mangans)","53.3441840885798","-7.04376434348563"
"8320B1028201","Edenderry (AIB)","53.3431316057814","-7.05039557796289"
"8320B1028301","Edenderry (St Marys School)","53.3407574195269","-7.05927810112891"
"8320B1028401","Edenderry (Opp Hoopers)","53.3412445631097","-7.06752661086114"
"8320B1028501","Edenderry (Jctn Cokery Lane)","53.3411679890814","-7.07385033268171"
"8320B1028601","Ballybryan School","53.3558207144626","-7.14916771185189"
"8320B1028701","Rhode (Opp Church)","53.3491439400891","-7.19994619170928"
"8320B1028901","Daingean (Church)","53.2942542655395","-7.29308780890807"
"8320B1029001","Tullamore (Tesco)","53.2671386747399","-7.46552097561965"
"8320B1029101","Opp Ballybryan School","53.3558734520549","-7.14900142139458"
"8320B1031701","Edenderry (Opp St Marys School)","53.3408290685784","-7.05924649089893"
"8320B1046701","Edenderry (Ulster Bank)","53.3432702373514","-7.04974674464148"
"8320B1046801","Edenderry (Mangans)","53.3444313547704","-7.04321816540278"
"8320B1046901","Edenderry (Lawton & Foley)","53.3472773755497","-7.03171001309824"
"8320B1048401","Tullamore (Opp Tesco)","53.2668611339608","-7.46375557845363"
"8320B1048501","Ballinagar Eastbound","53.2663046434433","-7.33700560433771"
"8320B1048601","Daingean (Opp Church)","53.2943181474955","-7.29325175500521"
"8320B1048701","Daingean (Park Hotel)","53.2966896447858","-7.29154750675355"
"8320B1048801","Rhode (Church)","53.3493042792536","-7.19973291713348"
"8320B1048901","Rhode (Eastbound)","53.3503447566013","-7.19675452355772"
"8320B1049001","Edenderry (Edenderry Hardware)","53.3415362957745","-7.07267103566731"
"8320B1049101","Edenderry (Hoopers)","53.3412534949364","-7.06637012367766"
"8320B1313901","Ballinagar, Ballinagar","53.2661781664203","-7.33688763928696"
"8320B1314401","Daingean, Main Street (Gaol Lane)","53.2967424043467","-7.29135162168702"
"8320B1318201","Rhode, Rhode","53.3503515184497","-7.19642396010584"
"8320B1359601","Edenderry, Edenderry Shopping Centre","53.3434929724408","-7.05857213287608"
"8320B1359701","Tullamore, Tullamore","53.2736850385092","-7.49313084230068"
"8320B135981","Tullamore (Offaly), O'Carroll Street","53.2751006174068","-7.48789646714569"
"8320B135991","Tullamore (High Street Opticians)","53.2736762429815","-7.49317592440777"
"8320B1521001","Birr, Birr Square","53.0964053443443","-7.91077337100467"
"8320B1521801","Birr (Post Office Emmett Square)","53.0961086179587","-7.91057988540149"
"8320B3505401","Killeigh, Killeigh","53.214091206808","-7.45058072821586"
"8320B358421","Ferbane (Opp School Main St)","53.2692638952725","-7.82797845172041"
"8320B3584301","Cloghan (Donegal), Cloghan","53.2239293325528","-7.88454162999432"
"8320B3584401","Ferbane, Ferbane","53.2696594531003","-7.82806681083317"
"8320B358451","Cloghan (Banagher St South)","53.2237676518626","-7.88463191540504"
"8320B359831","Clara (St Brigids Church)","53.3438784160209","-7.61444922877489"
"8320B3598401","Clara","53.3431942599072","-7.6140949924153"
"8330B1032601","Mary Lynch's","53.4902342228485","-7.20163321806573"
"8330B1032701","Mullingar (Imperial Tobacco)","53.5230280600819","-7.3100056088626"
"8330B1032801","Petiswood Manor","53.5245513564033","-7.317053972337"
"8330B1032901","Mullingar, Prospect Estate","53.5257488272928","-7.3301557829821"
"8330B1033001","Mullingar, Prospect Estate","53.5258283497008","-7.32991322086631"
"8330B1033101","Petiswood Manor","53.5248061505334","-7.31760788431366"
"8330B1033201","Mullingar (Imperial Tobacco)","53.5227946984799","-7.30850133537715"
"8330B1033301","Corlstown (Mary Lynch's Pub)","53.4902592677632","-7.20134643253914"
"8330B1033401","Coles Cross","53.4811009328527","-7.1709043544505"
"8330B1036701","Killucan (Top Shop)","53.5138676467868","-7.14289894637347"
"8330B1036801","Raharney (Opp McHughs)","53.5240396379213","-7.09278958623128"
"8330B104431","Rathowen, Rathowen","53.6557644125113","-7.52014610493481"
"8330B104441","Ballinalack, Ballinalack","53.6282055918202","-7.46973769687146"
"8330B104471","Mullingar, Mullingar Hospital","53.5350627980854","-7.3503584398495"
"8330B1049201","Ballynagore Southbound","53.4065591564061","-7.46448192053503"
"8330B1049701","Coole (Shop)","53.6987365289733","-7.37211565187812"
"8330B1049801","Castlepollard (Castle Hotel)","53.679557019413","-7.29883717340762"
"8330B1049901","Delvin (Opp Gaffneys)","53.6117640369723","-7.09319214400712"
"8330B105161","Collinstown, Collinstown (Maypole Bar)","53.647532190552","-7.21267100307607"
"8330B105171","Collinstown, Collinstown (Daybreak)","53.6476301372425","-7.21253305116328"
"8330B111731","Clonmellon, Clonmellon","53.6638533380869","-7.01709887712474"
"8330B111741","Clonmellon, Clonmellon","53.6639413264054","-7.01686985954469"
"8330B1312201","Rathowen, Rathowen","53.6555650799221","-7.51973991699981"
"8330B1312701","Ballinalack, Ballinalack","53.6282055918202","-7.46973769687146"
"8330B1315201","Coole, Coole","53.698700347459","-7.37207076013524"
"8330B1316101","Castlepollard, Castlepollard","53.6799614667119","-7.29884559278413"
"8330B1317701","Delvin, Delvin","53.6118051847229","-7.09269254677208"
"8330B1317901","Killucan, Killucan Prior's","53.5138847534119","-7.14277797983561"
"8330B1319301","Raharney, Raharney Mchugh's","53.5238881423395","-7.09295871740608"
"8330B1322701","Coles Cross","53.4816909480424","-7.17304731938947"
"8330B1354401","Kinnegad, Kinnegad Harry's","53.4546178099968","-7.1003226882956"
"8330B1354501","Kinnegad, Kinnegad The Phoenix","53.4546320083706","-7.10101499714887"
"8330B1357501","Mullingar, Mullingar Austin Friar Street","53.5260439431669","-7.3379634932791"
"8330B1357601","Mullingar, Mullingar Castle Street","53.5265137366166","-7.34003747660692"
"8330B1357801","Mullingar, Outside Train Station","53.5229894668617","-7.34632058326424"
"8330B137791","Castletown (Opp Church)","53.7540979031424","-7.33139554669211"
"8330B1384701","Rathconrath, Rathconrath","53.5297356324465","-7.52463372671528"
"8330B1384801","Skeagh Beg, Skeagh Cross","53.530387687281","-7.57363164628254"
"8330B1384901","Moyvore, Moyvare","53.5354226147376","-7.63109990421405"
"8330B1385001","Ballincurra, Ballinacurra Church","53.539848345026","-7.61814739486305"
"8330B1385101","Rathcastle, Mearscourt House","53.5448585976424","-7.58450069282778"
"8330B1385201","Kilmacnevan, Churchtown Cross","53.5596135260725","-7.5566292757385"
"8330B1385301","Ballynacargy, Murtagh's Ballinacarrigy","53.58330449281","-7.5381834750659"
"8330B1385401","Glascorn, Shandonagh","53.5256735945679","-7.4731607087992"
"8330B1385501","Rathconrath","53.5299593582893","-7.52214252071419"
"8330B1385601","Skeagh Beg, Skeagh Cross","53.530351956782","-7.57369233773584"
"8330B1385701","Moyvore, Moyvare","53.5353058838971","-7.63113108856392"
"8330B1385801","Ballincurra, Ballinacurra Church","53.5400015478474","-7.61828179520106"
"8330B1385901","Kilmacnevan, Churchtown Cross","53.5595870145544","-7.55675030134134"
"8330B1386001","Ballynacargy, Murtagh's Ballinacarrigy","53.5833221155973","-7.5380926708738"
"8330B1386201","Sonna Demesne, Sonna Cross","53.5569633209752","-7.47268151620278"
"8330B1386301","Rathcastle, Mearscourt House","53.5450852478578","-7.58507183140796"
"8330B1386401","Slanemore, Walshestown X","53.5438517864103","-7.42027780301391"
"8330B1386501","Green Bridge, Butlers","53.5266588752877","-7.35178409575112"
"8330B1386601","Green Bridge, Butlers","53.5266325710318","-7.35190515323378"
"8330B1386701","Clondardis, Walshestown Church","53.5437351856243","-7.42032466021312"
"8330B1386801","Sonna Demesne, Sonna Cross","53.5568469657087","-7.47278861141885"
"8330B138701","Finea Village (Bridge Southbound)","53.7807668152007","-7.38982757837187"
"8330B138711","Toher (Southbound)","53.7722089902229","-7.34338021345239"
"8330B138721","Three Point Cross (Southbound)","53.742758458214","-7.3284527500169"
"8330B138731","Trumera (Southbound)","53.6918459716847","-7.30418974870381"
"8330B138741","Whitehall (Opp Church)","53.6447956999476","-7.29867282068271"
"8330B138751","Crookedwood","53.6027117919655","-7.29270703901861"
"8330B138761","Taughmon (School)","53.5877029169468","-7.3032584432719"
"8330B138771","Knockdrin Cross (Castle)","53.5672008405755","-7.32303968433893"
"8330B1387901","Mullingar, Mullingar Hospital","53.5350084719684","-7.35028384660771"
"8330B138801","Knockdrin Cross (Opp Castle)","53.5671481205375","-7.32325187610947"
"8330B138811","Taughmon (Church)","53.5881947660197","-7.30284254671207"
"8330B138821","Crookedwood","53.6022809174196","-7.29278978226676"
"8330B138831","Whitehall (Church)","53.6447789683617","-7.29888483644065"
"8330B138841","Trumera (Northbound)","53.6918557488228","-7.3043258566444"
"8330B138851","Three Point Cross (Northbound)","53.7430002229601","-7.32829730155209"
"8330B138861","Castletown (Church)","53.754089424829","-7.33148666152444"
"8330B138871","Toher (Northbound)","53.7721821992885","-7.34341097130999"
"8330B138881","Finea Village (Bridge Northbound)","53.780704841204","-7.39001055230624"
"8330B150641","Tyrellspass (Main Street Centra)","53.3875491072655","-7.37861309982306"
"8330B150651","Kilbeggan (Distillery Inn The Square)","53.3681140675716","-7.49784069874507"
"8330B150661","Horseleap (Paddy Ryans Pub)","53.3925216569121","-7.5814904739121"
"8330B150671","Moate (Brownes Pub)","53.395245057763","-7.71984859038725"
"8330B1521701","Tyrrellspass, Tyrellspass","53.3874509615894","-7.37874982350607"
"8330B1523201","Horseleap, Horseleap","53.3925853007605","-7.58170033105637"
"8330B1554301","Moate, Moate","53.395217991695","-7.71980366236945"
"8330B1554401","Kilbeggan, Kilbeggan","53.368106534267","-7.4981863811909"
"8330B1581701","Ballynahown, Ballinahown","53.3495802921696","-7.8475406659066"
"8330B358411","Ballinahown (Church)","53.3496069840554","-7.84733030238106"
"8330B3599001","Ballynagore, Ballynagore","53.4064715837766","-7.46499435849097"
"8330B455461","Baylough (Westmeath), Galway Rd (Abbeygarth)","53.4242552523619","-7.96754697637384"
"8330B455471","Athlone, Battery Heights","53.4226856001829","-7.95026159167353"
"8330B455481","Athlone, Connaught St (Bastion Court)","53.4218931693235","-7.94657658651421"
"8330B455491","Athlone, Northgate St (Radisson Blu Hotel)","53.4259704920196","-7.94086902129787"
"8330B455501","Athlone, Gleeson Street","53.4249966797251","-7.93465649492477"
"8330B4555111","Athlone, Golden Island (Pitch)","53.4211028216202","-7.9301190759419"
"8330B455521","Golden Island, Lwr Retreat Road","53.4232135423405","-7.92812966444867"
"8330B455531","Retreat, Retreat Road (Opp Bower School)","53.4230660200379","-7.92217208211826"
"8330B455541","Retreat, Retreat Park","53.4221192654402","-7.91749491107197"
"8330B455551","Cartrontroy, Cartron Drive","53.4218338325767","-7.90812268131041"
"8330B455561","Cartrontroy, Opp Cypress Gardens","53.4215313951476","-7.90078162281956"
"8330B455581","Athlone, Old Dublin Rd (IDA)","53.4141498770612","-7.89684278746284"
"8330B455591","Athlone, Athlone AIT","53.4155721387027","-7.89959210249361"
"8330B455601","Bunnahinly, Creggan Court Hotel","53.4118645107348","-7.89374985491213"
"8330B455611","Washhouse Road, Old Dublin Rd (Lidl)","53.4140511130569","-7.89694831939424"
"8330B455621","Cartrontroy, Cypress Gardens","53.4208934572488","-7.90093355053795"
"8330B455631","Cartrontroy, The Elms","53.4218246255547","-7.90783685391565"
"8330B455641","Retreat, Retreat Ridge","53.4220744974593","-7.91773571259823"
"8330B455651","Retreat, Retreat Road (Bower School)","53.422921955975","-7.92175108583538"
"8330B455661","Golden Island, Lower Road (Opp Grace Park Road)","53.4229890799712","-7.92847607799566"
"8330B455671","Golden Island, Golden Island (Opp Pitch)","53.4210489623473","-7.9302244744585"
"8330B455681","Garden Vale, Gleeson St (Athlone Towncentre)","53.4250417287784","-7.93486706599376"
"8330B455691","Athlone, Athlone Bus Station","53.4268488304578","-7.93626361555727"
"8330B455701","Athlone, Northgate St (Court Devenish)","53.4246581946186","-7.94041947454151"
"8330B455711","Duogue, Battery Heights (Clonown Rd Jctn)","53.4225598161778","-7.95033696270826"
"8330B455721","Newtowncarbury (Westmeath), Galway Rd (Rajas Grill)","53.4243614996209","-7.9621305217547"
"8330B455731","Baylough (Westmeath), Galway Rd (Evergreen Avenue)","53.4241743506351","-7.9674718109009"
"8330B455791","Lakeview (Westmeath), Galway Rd (Iona Park)","53.4265055422908","-7.95159624840602"
"8330B455801","Athlone, Barrack St (Church)","53.4242553084611","-7.94354949067356"
"8330B455811","Garden Vale, Grace Park Rd (DSP)","53.4244276741832","-7.92966225870656"
"8330B455821","Athlone, Roslevin Lawn","53.4271436838586","-7.93313350941834"
"8330B455831","Athlone Sports Centre","53.4290878173465","-7.92315419535744"
"8330B455841","Arcadia Retail Centre, Slí an Aifrinn","53.4315720527913","-7.92943979177832"
"8330B455851","Arcadia Retail Centre, Arcadia (Temple Printing)","53.4322688567452","-7.93813654181925"
"8330B455861","Clonbrusk West, Primary Care Centre","53.4333033649402","-7.94015155760004"
"8330B455871","Coosan, Coosan Rd (Opp Coosan Heath)","53.4366803080736","-7.93611345726593"
"8330B455881","Cornamagh (Westmeath), Ballymahon Rd (Dubarry Park)","53.4350747119408","-7.92582216565712"
"8330B455891","Clonbrusk, Ballymahon Rd (Supervalu)","53.4327711664598","-7.92125144613586"
"8330B455901","Faggot Hill (Westmeath), Ballymahon Rd (Opp Dept Education)","53.433719141882","-7.91452288429495"
"8330B455911","Cornamaddy (Westmeath), Woodville Rd (Opp Cornamaddy Sch)","53.4342031924102","-7.90126377665778"
"8330B455921","Blyry Industrial Estate, Blyry Court(Ericsson)","53.4302853148663","-7.90170923603874"
"8330B455931","Garrycastle (Westmeath), Garrycastle (FAS)","53.4242095356435","-7.90086566026489"
"8330B455941","Garrycastle (Westmeath), Garrycastle (Opp FAS)","53.4242906786099","-7.90118142623358"
"8330B455951","Blyry Industrial Estate, Blyry Court(Opp Ericsson)","53.4293689221996","-7.9020273424381"
"8330B455961","Cornamaddy (Westmeath), Woodville (Commaddy School)","53.4344820681731","-7.90160925872335"
"8330B455971","Cornamagh (Westmeath), Ballymahon Rd (Dept of Education)","53.4330768400336","-7.90879066989244"
"8330B455981","Cloghanboy, Ballymahon Rd (Opp Supervalu)","53.4329502433248","-7.92025791287036"
"8330B455991","Clonbrusk, Ballymahon Road (The Glen)","53.4351831106327","-7.92672493532877"
"8330B456001","The Beeches (Westmeath), Coosan Rd (Coosan Heath)","53.4365184653784","-7.93596320221838"
"8330B456011","Arcadia Retail Centre, Opp Primary Care Centre","53.4332673271709","-7.93997102467759"
"8330B456021","Athlone, Athlone B&Q","53.4323765889471","-7.93792570897711"
"8330B456031","Arcadia Retail Centre, Arcadia Crescent","53.4316892439115","-7.93005656866574"
"8330B456041","Garden Vale, Grovelands","53.4273859038828","-7.93238080168987"
"8330B456051","Garden Vale, Grace Park Rd ( Opp DSP)","53.42484145504","-7.93032358453692"
"8330B456061","Athlone, SS Peter & Paul Church","53.424201423165","-7.9436247891886"
"8330B456071","Lakeview (Westmeath), Galway Rd (Opp Iona Park)","53.4261107114068","-7.95307121477294"
"8330B5001301","Baylough","53.4226747851091","-7.97236254367298"
"8330B5001401","Halls Bridge","53.4241994913664","-7.96136334902022"
"8330B5001501","St. Peter's Avenue","53.423614179468","-7.95790347931292"
"8330B5001601","The Batteries","53.4237472585129","-7.95326940588153"
"8330B5001701","Connaught Street","53.422773110894","-7.94489045211357"
"8330B5001801","John Broderick Street","53.4222378952346","-7.9349616194851"
"8330B5001901","Athlone, Athlone Golden Island Shopping Centre","53.4213199484818","-7.9326311365905"
"8330B500221","Athlone (Golden Island SC)","53.4209437048403","-7.9347981073466"
"8330B5255101","Drumraney, Drumraney","53.4803581067502","-7.75187453581048"
"8330B525551","Drumraney, Drumraney","53.4798828147071","-7.75235939384701"
"8330B5534001","Ballymore, Ballymore Westmeath","53.4908382610394","-7.68062716735868"
"8330B553461","Ballymore (Cunninghams)","53.4908450706605","-7.67981338646848"
"8330B5546201","Castle Street","53.4226641777525","-7.94257368074834"
"8330B5547001","Connaught Street","53.4219923450258","-7.94729860526239"
"8330B5547601","The Batteries","53.4236303887805","-7.95316421745786"
"8330B5547701","St. Peter's Avenue","53.4235152874261","-7.95779826070865"
"8330B5547801","Baylough","53.4226477722488","-7.97213688803237"
"8330B5551001","Athlone, Athlone Bus Station","53.4265876548033","-7.93522581354741"
"8330B5551101","Fardrum, Athlone A I T","53.4170829403997","-7.90080702027471"
"8330B555391","Athlone, Athlone AIT","53.4153198861517","-7.89885562407963"
"8330B5577101","Glassan, Glasson","53.4712549626699","-7.86397449135528"
"8330B557741","Glasson (Grogans Bar)","53.4709854983946","-7.86409584875816"
"8330B598101","Loughnavalley (Opp William Fox)","53.4867130682141","-7.52616961394091"
"8330B598111","Ballinea (Opp Daybreak)","53.5069182871828","-7.4225908795422"
"8330B5981301","County Westmeath, Killare","53.4845042939329","-7.57954607559908"
"8330B5981401","Loughanavally, Loughnavalley","53.4867139042633","-7.52638055223486"
"8330B5981501","Ballina (Mayo), Ballinea","53.5070505311746","-7.42206145824475"
"8330B598181","Killare (Opp Uisneach Inn)","53.4844716833273","-7.58049561022706"
"8330B5987601","Knockdrin, Mullingar By Pass Hamills","53.5199452042066","-7.28847671679608"
"8330B9910001","Athlone, Athlone Bus Station","53.4267767186038","-7.93585747231473"
"8340B136281","Bunclody (Market Square Northbound)","52.655030553337","-6.65214813689949"
"8340B136291","Enniscorthy (Opp St Senans Hospital)","52.4898831865274","-6.56600697805587"
"8340B1363001","Newtown Road (Hospital) Wexford","52.3420231583927","-6.48401302942598"
"8340B1406401","Kilrane","52.2419595398442","-6.35487041925445"
"8340B2346401","Piercetown Cross","52.2902788142897","-6.4636883460967"
"8340B2988801","Wexford, Wexford General Hospital","52.3420068930363","-6.4876534116666"
"8340B2989001","Greenore Park Rosslare","52.2493674056547","-6.34397774272059"
"8340B3004001","Wexford, Wexford Trinity Street","52.3350834852598","-6.45625151984892"
"8340B3004201","New Ross, New Ross Irishtown","52.3969709193","-6.93488591757046"
"8340B3202401","Fairy Hill","52.3844394912478","-6.46907408635442"
"8340B3300201","Killurin","52.3836503257255","-6.57786959786227"
"8340B3300301","Ballyhogue (Stores)","52.4142715603614","-6.57525286034456"
"8340B330041","Ballyhogue (Opp Stores)","52.4141529769477","-6.57510967737686"
"8340B330051","Sparrow Bridge","52.4259547276813","-6.62437118385382"
"8340B330081","Sparrow Bridge (Northbound)","52.4288387156926","-6.6142376432391"
"8340B330201","Barrys Cross","52.3561906893919","-6.65402189997542"
"8340B3302201","Ballycullane (Powes Pub)","52.2774743569175","-6.83780752908516"
"8340B3302401","Blackhall","52.2178058164447","-6.77479509722023"
"8340B3302501","Camross","52.3624088327816","-6.70284534516062"
"8340B330261","Ballycullane (Opp Powers Pub)","52.2774939164804","-6.83796822083952"
"8340B330271","Barrys Cross","52.3558551534792","-6.6529750608624"
"8340B3302801","Ballyvergin","52.3613868994256","-6.71131787984462"
"8340B330291","Ballyvergin","52.3623265807277","-6.71176039594939"
"8340B330301","Carrick on Bannow","52.2389313901005","-6.73233648299998"
"8340B3303101","Kilmore Quay","52.1777868977584","-6.58453341994181"
"8340B3303201","Larkins Cross","52.3398156748995","-6.5641897462795"
"8340B3303501","Carrick on Bannow","52.2388304956956","-6.73214900869845"
"8340B3303701","Fethard-on-Sea (Dillions Shop)","52.1921465302912","-6.84019509307477"
"8340B330381","Larkins Cross","52.3398719064319","-6.56437871106826"
"8340B3304001","Taghmon (Supermarket Main Street)","52.322909428823","-6.65448939106146"
"8340B330411","Coolishal","52.2341456854556","-6.69897482146174"
"8340B3304301","Coolishal","52.2340107295921","-6.69896412698313"
"8340B3304401","Kilmore (Wexford)","52.2040503808078","-6.54946222518494"
"8340B3304501","Marshalstown (Murphys Shop)","52.5501146471773","-6.59648515055057"
"8340B330471","Rochestown Cross (Westbound)","52.2822362847854","-6.75384786990999"
"8340B330481","New Ross (Irishtown Northbound)","52.3968646658156","-6.93506480714757"
"8340B3304901","Rochestown Cross (Eastbound)","52.2822362847854","-6.75384786990999"
"8340B330511","Mile House (Bridgemeadow)","52.510601431069","-6.58908168501779"
"8340B3305201","Clongeen (Eastbound)","52.2967228525528","-6.76977395845291"
"8340B3305401","Coolseskin","52.2219158404161","-6.70019587503351"
"8340B330561","Coolseskin","52.2219158404161","-6.70019587503351"
"8340B3305901","Mile House (Bellfield Rd)","52.510425789502","-6.5886747978316"
"8340B3306001","Montfield","52.6703570043913","-6.27628920307447"
"8340B330611","Ballynure (Westbound)","52.5359489902536","-6.60949641273794"
"8340B330621","Taghmon (Pharmacy Main Street)","52.3229014450809","-6.65457765399447"
"8340B330631","Montfield","52.6703529194982","-6.27600841180485"
"8340B330641","Courtown Harbour","52.6449118174922","-6.23014693514187"
"8340B3306601","Ballynure (Eastbound)","52.5361209267653","-6.60959416840538"
"8340B3306701","Courtown Harbour","52.6440223755141","-6.22777401014847"
"8340B3306901","Duncannon (Strand Bar)","52.22023559897","-6.9323870030204"
"8340B330701","Ardamaine (Opp Parklands)","52.6252767705151","-6.23176657209032"
"8340B3307201","Foulksmills (Opposite Pub)","52.3142194787961","-6.75300836949967"
"8340B330731","Foulksmills (Pub)","52.3142194787961","-6.75300836949967"
"8340B330751","Clongeen (Westbound)","52.2972541219373","-6.76986186599616"
"8340B3307701","Ardamaine","52.6285426622158","-6.23135420968844"
"8340B3307801","Ballindaggin (Mountain View Est)","52.5685356822566","-6.68117838497214"
"8340B330791","Ballindaggin (Opposite Chrch)","52.5684961249698","-6.68085502943491"
"8340B330801","Ballygarrett (Petrol Station)","52.5740165197091","-6.22969870879814"
"8340B3308201","Carne","52.1977715621936","-6.35779016782238"
"8340B3308601","Ramsgrange (Opposite Post Office)","52.245174364081","-6.91891633182481"
"8340B3308801","Ballinaboola (Horse and Hound Inn)","52.3694962099008","-6.83800762700822"
"8340B3308901","Ballygarrett","52.5730780703628","-6.23006110922613"
"8340B3309001","Ballymacar (Eastbound)","52.38677216193","-6.90671917295148"
"8340B3309101","Campile (Londis Supermarket)","52.291687194615","-6.94217752613714"
"8340B330931","Ballymacar (Westbound)","52.3867842728324","-6.90705676547115"
"8340B3309501","Dorans Bridge (Northbound)","52.574884831592","-6.72495488778176"
"8340B330961","Gallagher's Cross","52.2130165966138","-6.78629726493232"
"8340B3309801","Ladys Island","52.2117950978187","-6.38316043584623"
"8340B3310101","Rathangan (Wexford)","52.2309458524795","-6.61679285713891"
"8340B331041","Camross (Rochfords Pub)","52.3623754277169","-6.70225899865992"
"8340B3310501","Broadway","52.2190681703245","-6.38714080152616"
"8340B3310601","Crossabeg","52.3839526531952","-6.50051419059092"
"8340B331071","Rathangan (Wexford)","52.2310678826844","-6.61646698653292"
"8340B331101","Kiltealy (Opp Bowes Pub)","52.5654237764392","-6.74552642009091"
"8340B3311101","Kiltealy (Graveyard)","52.5649406376296","-6.74658750116279"
"8340B3311601","Tenacre Cross","52.2214433753531","-6.50966874255059"
"8340B3311701","Ballycogley","52.2434808072893","-6.48951225983737"
"8340B331181","Bridgetown (Opp Takeaway)","52.2304180247861","-6.55254093324594"
"8340B3311901","Bridgetown (Takeway)","52.2304086800618","-6.55251195770465"
"8340B331211","Dorans Bridge (Southbound)","52.5748400610597","-6.72497094068879"
"8340B331231","Killane (Opp Rackards Pub)","52.521859386294","-6.74504379044492"
"8340B331251","Kilmuckridge (Opposite KMH)","52.5140111366594","-6.28324030116453"
"8340B331271","Ballymore (Pump)","52.2443760382982","-6.45313422590784"
"8340B3312801","Killane (Rackards Pub)","52.5219221322338","-6.74502726591942"
"8340B3312901","Kilmuckridge","52.5113720716668","-6.28598046455261"
"8340B3313001","Duncormick","52.2282142421019","-6.65578797532577"
"8340B3313201","Dumain (Eastbound)","52.3064022035077","-6.88074995573594"
"8340B3314201","Galbally (Church)","52.3991363863064","-6.63954822710259"
"8340B3314801","Killane (near Wexford town)","52.284297649954","-6.46412979151026"
"8340B331491","Dumain (Westbound)","52.3063668120435","-6.88080950567286"
"8340B331501","Galbally (Opp Church)","52.3990536538818","-6.63938912263151"
"8340B331521","Broadway","52.2190671705201","-6.38706765621005"
"8340B331551","Our Lady's Island","52.2104562466774","-6.38189203827182"
"8340B331561","Carne","52.1977517603326","-6.357659233618"
"8340B3315901","Kilrane","52.2424528346609","-6.35737095102594"
"8340B3316001","Tagoat, Tagoat","52.2440959974793","-6.39182751060935"
"8340B3316101","Piercetown Cross","52.2891497162747","-6.4639619619712"
